school_name,school_level,lot_address,road_address,latitude,longitude
남서울중학교,중학교,서울특별시 관악구 신림동 1690-3,서울특별시 관악구 남부순환로172길 97,37.48213625,126.9210371
봉은중학교,중학교,서울특별시 강남구 삼성동 82-7,서울특별시 강남구 영동대로128길 59,37.51897667,127.0623894
대전대화초등학교,초등학교,대전광역시 대덕구 대화동 244-5,대전광역시 대덕구 대화로 242-36,36.36269221,127.4113441
도담고등학교,고등학교,세종특별자치시 도담동 642,세종특별자치시 보듬4로 41,36.51420716,127.2634446
가수원초등학교,초등학교,대전광역시 서구 가수원동 732-3,대전광역시 서구 벌곡로 1359,36.30239371,127.3530021
서울중화초등학교,초등학교,서울특별시 중랑구 신내동 531,서울특별시 중랑구 신내로7가길 22,37.60292163,127.094065
금호중앙중학교,중학교,광주광역시 북구 운암동 140,광주광역시 북구 금호로 100,35.1785969,126.8855126
월산중학교,중학교,경상남도 김해시 부곡동 806-10,경상남도 김해시 월산로 104,35.20526183,128.8039417
대전하기초등학교,초등학교,대전광역시 유성구 하기동 514,대전광역시 유성구 송림로19번길 32,36.38863145,127.321529
서울상월초등학교,초등학교,서울특별시 노원구 상계동 697,서울특별시 노원구 동일로221길 27,37.65865224,127.0569799722
선유중학교,중학교,서울특별시 영등포구 양평동3가 82,서울특별시 영등포구 선유로 213,37.53328647,126.8943293
서울중목초등학교,초등학교,서울특별시 중랑구 면목동 180-5,서울특별시 중랑구 동일로 665,37.59008735,127.0793361
독산고등학교,고등학교,서울특별시 금천구 독산동 907-34,서울특별시 금천구 문성로 64,37.47621872,126.9109732
연봉초등학교,초등학교,세종특별자치시 연서면 봉암리 210-2,세종특별자치시 연서면 당산로 357-1,36.56445274,127.2820714
연남초등학교,초등학교,세종특별자치시 연기면 연기리 397,세종특별자치시 연기면 연기길 2,36.54388083,127.277847
수왕초등학교,초등학교,세종특별자치시 연기면 눌왕리 324,세종특별자치시 연기면 눌왕길 8-45,36.54347359,127.2522261
산이중학교,중학교,전라남도 해남군 산이면 초송리 527-5,전라남도 해남군 산이면 비석길 98-2,34.64545878,126.4481956
광남중학교,중학교,경기도 광명시 광명동 384-6,경기도 광명시 광명로 785,37.47007475,126.8475588
김해임호고등학교,고등학교,경상남도 김해시 외동 715-2,경상남도 김해시 분성로3번길 77,35.23826864,128.8527201
방산중학교,중학교,서울특별시 송파구 방이동 220,서울특별시 송파구 오금로29길 31,37.50937287,127.1218756
하동중앙중학교,중학교,경상남도 하동군 하동읍 읍내리 667,경상남도 하동군 하동읍 연화길 77,35.07664446,127.7495276
신탄진초등학교,초등학교,대전광역시 대덕구 석봉동 308-7,대전광역시 대덕구 석봉로3번길 50,36.44898499,127.4225035
서울영림초등학교,초등학교,서울특별시 영등포구 대림동 993-16,서울특별시 영등포구 시흥대로173길 14,37.48734601,126.9025393
서천초등학교,초등학교,부산광역시 사하구 감천동 506-1,부산광역시 사하구 감천로105번길 10,35.08874156,129.0038498
대구관천초등학교,초등학교,대구광역시 북구 태전동 999-2,대구광역시 북구 구암로22길 17,35.93053458,128.5520401
산내초등학교,초등학교,대전광역시 동구 낭월동 632,대전광역시 동구 산내로 1292,36.27979819,127.470066
서울평화초등학교,초등학교,서울특별시 송파구 가락동 106,서울특별시 송파구 송파대로26길 22,37.49156712,127.1228237
대전성남초등학교,초등학교,대전광역시 동구 성남동 193-5,대전광역시 동구 성남로32번길 5,36.34394433,127.4293687
방산고등학교,고등학교,서울특별시 송파구 방이동 220-5,서울특별시 송파구 오금로27길 18,37.50831315,127.1204696
세륜중학교,중학교,서울특별시 송파구 오금동 7-3,서울특별시 송파구 양재대로72길 41,37.50893314,127.1312464
진남초등학교,초등학교,광주광역시 남구 노대동 732,광주광역시 남구 효우로60번길 12,35.10912722,126.9024721
의귀초등학교,초등학교,제주특별자치도 서귀포시 남원읍 의귀리 1483-3,제주특별자치도 서귀포시 남원읍 한신로 213,33.31111895,126.714628
서울양원초등학교,초등학교,서울특별시 양천구 신월동 260-1,서울특별시 양천구 화곡로 16,37.53821733,126.8231052
율하중학교,중학교,경상남도 김해시 율하동 1293,경상남도 김해시 율하1로 39,35.17508098,128.808001
삼성여자고등학교,고등학교,부산광역시 사하구 감천동 598-1,부산광역시 사하구 감천로43번길 45,35.09422497,128.9982328
좌삼초등학교,초등학교,경상남도 양산시 상북면 좌삼리 493,경상남도 양산시 상북면 수서로 275-16,35.44102579,129.0434678
영산중학교,중학교,경상남도 창녕군 영산면 서리 253,경상남도 창녕군 영산면 영산계성로 87,35.4601691,128.5242737
유어초등학교,초등학교,경상남도 창녕군 유어면 부곡리 481,경상남도 창녕군 유어면 마수원길 39,35.50944637,128.4110124
서울동작초등학교,초등학교,서울특별시 동작구 사당동 산9-1,서울특별시 동작구 동작대로29길 214,37.49410161,126.9765088
서울문영여자고등학교,고등학교,서울특별시 관악구 봉천동 1695,서울특별시 관악구 관악로 85,37.47290457,126.9509181
서울갈산초등학교,초등학교,서울특별시 양천구 신정동 330-10,서울특별시 양천구 목동로 31,37.51237156,126.8702299
서울태랑초등학교,초등학교,서울특별시 노원구 공릉동 116,서울특별시 노원구 화랑로51나길 31,37.62625056,127.0906031
서울한천초등학교,초등학교,서울특별시 노원구 월계동 3-7,서울특별시 노원구 마들로 45,37.62070936,127.0692435
괴정초등학교,초등학교,부산광역시 사하구 괴정동 230,부산광역시 사하구 낙동대로 152,35.10376396,128.9997579
대전관저초등학교,초등학교,대전광역시 서구 관저동 992,대전광역시 서구 관저동로 161,36.30655924,127.3399115
대구국우초등학교,초등학교,대구광역시 북구 국우동 129,대구광역시 북구 도남중앙로10길 45,35.95582279,128.5856952
무안초등학교,초등학교,경상남도 밀양시 무안면 무안리 927-1,경상남도 밀양시 무안면 사명로 531,35.4729283,128.651293
영신고등학교,고등학교,대구광역시 동구 봉무동 524,대구광역시 동구 팔공로50길 32,35.92000422,128.646424
상장중학교,중학교,강원특별자치도 태백시 황지동 123,강원특별자치도 태백시 태백로 1221,37.15068611,128.9921217
맹방초등학교,초등학교,강원특별자치도 삼척시 근덕면 상맹방리 171-1,강원특별자치도 삼척시 근덕면 삼척로 3884-4,37.39852676,129.2127768
미로중학교,중학교,강원특별자치도 삼척시 미로면 하거노리 449,강원특별자치도 삼척시 미로면 강원남부로 3907,37.41041541,129.1038915
서울신구초등학교,초등학교,서울특별시 강남구 신사동 550-11,서울특별시 강남구 압구정로18길 28,37.52336057,127.0239924
거창초등학교,초등학교,경상남도 거창군 거창읍 중앙리 311,경상남도 거창군 거창읍 아림로 48,35.6875316,127.9100892
동래여자중학교,중학교,부산광역시 금정구 구서동 72-3,부산광역시 금정구 체육공원로 20,35.24704234,129.0981972
유안초등학교,초등학교,광주광역시 남구 봉선동 124,광주광역시 남구 봉선로175번길 16,35.1254854,126.9146862
서울봉화초등학교,초등학교,서울특별시 중랑구 신내동 655,서울특별시 중랑구 신내로15길 110,37.61357623,127.0924085
영신초등학교,초등학교,대구광역시 동구 봉무동 524,대구광역시 동구 팔공로50길 32,35.92000422,128.646424
서령초등학교,초등학교,충청남도 서산시 죽성동 77-2,충청남도 서산시 남부순환로 749,36.74421665,126.4470036
동아중학교,중학교,부산광역시 수영구 광안동 1222-23,부산광역시 수영구 호암로 55,35.15678092,129.106984
통리초등학교,초등학교,강원특별자치도 태백시 통동 69-8,강원특별자치도 태백시 통골2길 9,37.16673527,129.0354652
단국대학교부속소프트웨어고등학교,고등학교,서울특별시 강남구 대치동 1013-3,서울특별시 강남구 도곡로64길 21,37.49562483,127.0577682
거제장평중학교,중학교,경상남도 거제시 장평동 148,경상남도 거제시 장평4로 40,34.88608569,128.6064665
연무여자중학교,중학교,충청남도 논산시 연무읍 동산리 879,충청남도 논산시 연무읍 동안로887번길 5,36.13536466,127.1046328
기장초등학교,초등학교,부산광역시 기장군 기장읍 동부리 320,부산광역시 기장군 기장읍 읍내로 69,35.24577217,129.2127656
성일여자고등학교,고등학교,부산광역시 사하구 신평동 60-1,부산광역시 사하구 다대로 161,35.08949951,128.9800626
칠산초등학교,초등학교,경상남도 김해시 화목동 773-1,경상남도 김해시 칠산로413번길 16-2,35.21001649,128.8515415
북상초등학교,초등학교,경상남도 거창군 북상면 갈계리 1439-1,경상남도 거창군 북상면 송계로 731-18,35.78009585,127.8170386
대영고등학교,고등학교,서울특별시 영등포구 신길동 336-2,서울특별시 영등포구 도림로86길 16,37.50366109,126.9058657
대구아양초등학교,초등학교,대구광역시 동구 신암동 1463,대구광역시 동구 아양로 221,35.88746268,128.6374338
가수원중학교,중학교,대전광역시 서구 가수원동 806-18,대전광역시 서구 가수원로 26,36.29847211,127.354558
동원중학교,중학교,대구광역시 수성구 만촌동 254,대구광역시 수성구 효행로2길 81,35.87585642,128.6510708
서울양동초등학교,초등학교,서울특별시 양천구 신정동 941,서울특별시 양천구 오목로23길 24,37.52584826,126.8512402
한국과학영재학교,고등학교,부산광역시 부산진구 당감동 899,부산광역시 부산진구 백양관문로 105-47,35.16520011,129.0257844
대구남산고등학교,고등학교,대구광역시 수성구 수성동1가 96-16,대구광역시 수성구 신천동로 364,35.85731247,128.6091788
고헌중학교,중학교,울산광역시 북구 화봉동 1485-1,울산광역시 북구 박상진2로 81,35.59777915,129.364027
서감초등학교,초등학교,부산광역시 사상구 감전동 122-1,부산광역시 사상구 괘감로 64,35.15782029,128.9820602
부일외국어고등학교,고등학교,부산광역시 사하구 감천동 634-61,부산광역시 사하구 감천로73번길 36,35.09073609,129.0025604
부산센텀여자고등학교,고등학교,부산광역시 해운대구 우동 1025-127,부산광역시 해운대구 해운대로469번길 50-1,35.16591884,129.1443578
불로중학교,중학교,대구광역시 동구 불로동 1010,대구광역시 동구 방천로5길 8,35.89830061,128.6344118
오륜중학교,중학교,서울특별시 송파구 방이동 89-7,서울특별시 송파구 양재대로 1242,37.51632395,127.1389238
대구범일초등학교,초등학교,대구광역시 수성구 범물동 1364,대구광역시 수성구 범안로4길 22,35.81631646,128.6388284
대구복명초등학교,초등학교,대구광역시 수성구 범물동 1293,대구광역시 수성구 범안로20길 8,35.8176268,128.6472131
안중초등학교,초등학교,충청남도 태안군 안면읍 중장리 653,충청남도 태안군 안면읍 율포길 31,36.47401169,126.3722967
대전중원초등학교,초등학교,대전광역시 대덕구 중리동 371-5,대전광역시 대덕구 중리로64번길 45,36.3658142,127.4280277
용아초등학교,초등학교,충청북도 청주시 상당구 용암동 236-6,충청북도 청주시 상당구 중고개로142번길 32-15,36.61822602,127.522454
광주자동화설비마이스터고등학교,고등학교,광주광역시 광산구 우산동 1084,광주광역시 광산구 사암로92번길 136-26,35.15002094,126.8140921
부산디지털고등학교,고등학교,부산광역시 중구 영주동 446-2,부산광역시 중구 망양로 356,35.10885429,129.0324467
김화공업고등학교,고등학교,강원특별자치도 철원군 서면 와수리 589-5,강원특별자치도 철원군 서면 와수1로 72,38.24340756,127.4349464
석천중학교,중학교,강원특별자치도 양구군 양구읍 정림리 230-1,강원특별자치도 양구군 양구읍 박수근로 327,38.1009114,127.9808197
기장중학교,중학교,부산광역시 기장군 기장읍 대라리 40,부산광역시 기장군 기장읍 읍내로 120,35.24488187,129.2183149
운호중학교,중학교,충청북도 청주시 서원구 모충동 132-13,충청북도 청주시 서원구 무심서로 375,36.62505317,127.4851868
문현고등학교,고등학교,울산광역시 동구 방어동 1008,울산광역시 동구 화잠7길 25,35.48239565,129.4091804
만리포중학교,중학교,충청남도 태안군 소원면 신덕리 631-2,충청남도 태안군 소원면 소근로 63-12,36.76552125,126.1939311
춘천여자고등학교,고등학교,강원특별자치도 춘천시 동면 만천리 산133-15,강원특별자치도 춘천시 동면 만천양지길 95,37.88848989,127.7635403
대전원신흥중학교,중학교,대전광역시 유성구 원신흥동 526,대전광역시 유성구 동서대로735번길 20,36.33301958,127.3453452
공산중학교,중학교,대구광역시 동구 백안동 560-5,대구광역시 동구 팔공로197길 26,35.95506586,128.6906838
상명대학교사범대학부속여자고등학교,고등학교,서울특별시 종로구 홍지동 7-1,서울특별시 종로구 홍지문2길 20,37.60410891,126.9551595
세성초등학교,초등학교,충청북도 충주시 살미면 세성리 147,충청북도 충주시 살미면 매남이길 31,36.90479486,127.9692482
도리초등학교,초등학교,제주특별자치도 제주시 도두일동 2430-1,제주특별자치도 제주시 도리로 129,33.50185617,126.4654959
대구장산초등학교,초등학교,대구광역시 달서구 용산동 957,대구광역시 달서구 장산로 30,35.85483742,128.5265018
철암초등학교,초등학교,강원특별자치도 태백시 철암동 341-7,강원특별자치도 태백시 동태백로 584,37.12174675,129.0429224
울산중앙중학교,중학교,울산광역시 남구 신정동 859-3,울산광역시 남구 중앙로63번길 5,35.5260243,129.3156805
수완하나중학교,중학교,광주광역시 광산구 수완동 973,광주광역시 광산구 수완로105번길 47,35.19420808,126.8275242
광명남초등학교,초등학교,경기도 광명시 광명동 295-58,경기도 광명시 광명로 866-9,37.47512709,126.8537024
광명동초등학교,초등학교,경기도 광명시 철산동 78-4,경기도 광명시 연서일로 25,37.48395182,126.8633963
청학초등학교,초등학교,부산광역시 영도구 청학동 412-3,부산광역시 영도구 청학로 49,35.09320176,129.0595039
중일고등학교,고등학교,대전광역시 유성구 관평동 671,대전광역시 유성구 배울2로 68,36.42052491,127.3886965
영신중학교,중학교,대구광역시 동구 봉무동 524,대구광역시 동구 팔공로50길 32,35.92000422,128.646424
부일전자디자인고등학교,고등학교,부산광역시 사하구 감천동 634-61,부산광역시 사하구 감천로73번길 36,35.09073609,129.0025604
서울영상고등학교,고등학교,서울특별시 양천구 신정동 984,서울특별시 양천구 목동로11길 46,37.52330444,126.8602935
대전교촌초등학교,초등학교,대전광역시 유성구 교촌동 618,대전광역시 유성구 진잠로149번길 42,36.30602189,127.3167705
김해중학교,중학교,경상남도 김해시 부원동 39,경상남도 김해시 호계로 456,35.23110531,128.8861356
신명여자중학교,중학교,대구광역시 수성구 수성동1가 96-16,대구광역시 수성구 신천동로 364,35.85731247,128.6091788
대구명덕초등학교,초등학교,대구광역시 중구 남산동 2113,대구광역시 중구 남산로2길 125,35.85754073,128.5890267
황지고등학교,고등학교,강원특별자치도 태백시 황지동 232,강원특별자치도 태백시 번영로 179,37.16112037,128.9855688
사직여자고등학교,고등학교,부산광역시 동래구 사직동 981-1,부산광역시 동래구 쇠미로27번길 21,35.1968431,129.0514472
수곡초등학교,초등학교,충청북도 청주시 서원구 수곡동 779,충청북도 청주시 서원구 수곡로 73,36.61836437,127.4711256
보수초등학교,초등학교,부산광역시 중구 보수동1가 50-1,부산광역시 중구 흑교로 74,35.10607215,129.024219
계촌중학교,중학교,강원특별자치도 평창군 방림면 계촌리 1372,강원특별자치도 평창군 방림면 계촌길 139,37.45278719,128.3088135
상평초등학교,초등학교,강원특별자치도 양양군 서면 상평리 18,강원특별자치도 양양군 서면 물윗구미길 25,38.07341515,128.5859389
서울강남초등학교,초등학교,서울특별시 동작구 상도1동 501-1,서울특별시 동작구 강남초등길 15,37.50619275,126.9533591
계동초등학교,초등학교,경상남도 김해시 대청동 333-1,경상남도 김해시 계동로 96,35.1847881,128.7956854
신탄진중학교,중학교,대전광역시 대덕구 석봉동 311-1,대전광역시 대덕구 석봉로 15,36.44731214,127.4234779
대구동부고등학교,고등학교,대구광역시 동구 각산동 199,대구광역시 동구 반야월북로 199,35.87429023,128.7190722
밀성제일고등학교,고등학교,경상남도 밀양시 내이동 590-1,경상남도 밀양시 밀양대로 2078,35.50218318,128.750145
안명초등학교,초등학교,경상남도 김해시 한림면 안하리 346-1,경상남도 김해시 한림면 안하로 28,35.30441614,128.8280099761
대전배울초등학교,초등학교,대전광역시 유성구 관평동 663,대전광역시 유성구 배울2로 8,36.4219077,127.3841459
상평초등학교공수전분교장,초등학교,강원특별자치도 양양군 서면 공수전리 31-4,강원특별자치도 양양군 서면 구룡령로 2855,38.0418679,128.5572842
광명고등학교,고등학교,경기도 광명시 철산동 234,경기도 광명시 오리로876번길 17,37.47857117,126.8659896
송해초등학교,초등학교,인천광역시 강화군 송해면 솔정리 640,인천광역시 강화군 송해면 전망대로 93-12,37.7694551,126.4610541
경운중학교,중학교,경상남도 김해시 내동 1115-3,경상남도 김해시 우암로 62,35.23612594,128.8618342
무거고등학교,고등학교,울산광역시 남구 무거동 1000,울산광역시 남구 대학로1번길 17-28,35.53627893,129.2507423
거제초등학교,초등학교,부산광역시 연제구 거제동 676-152,부산광역시 연제구 해맞이로 39,35.17807396,129.0675717
성서중학교,중학교,대구광역시 달서구 용산동 948,대구광역시 달서구 용산서로 63,35.8558081,128.5266048
서울상봉초등학교,초등학교,서울특별시 중랑구 상봉동 312-1,서울특별시 중랑구 동일로126가길 11,37.59797895,127.0831714
서울원광초등학교,초등학교,서울특별시 노원구 중계동 359,서울특별시 노원구 덕릉로76길 18,37.65431092,127.0749142
서울월계초등학교,초등학교,서울특별시 노원구 월계동 561,서울특별시 노원구 월계로45가길 10,37.62762424,127.0501876
우신고등학교,고등학교,서울특별시 구로구 궁동 230,서울특별시 구로구 부일로 917,37.49490231,126.8263536
주천고등학교,고등학교,강원특별자치도 영월군 주천면 주천리 1430,강원특별자치도 영월군 주천면 주천로89번길 41,37.27355179,128.2650794
대전신계초등학교,초등학교,대전광역시 서구 복수동 452,대전광역시 서구 복수동로 26,36.30195202,127.3780278
덕적중학교,중학교,인천광역시 옹진군 덕적면 진리 136,인천광역시 옹진군 덕적면 덕적남로 15,37.22538058,126.1481953
경구고등학교,고등학교,경상북도 구미시 봉곡동 279,경상북도 구미시 봉곡로9길 25,36.14854107,128.307609
용인신촌초등학교,초등학교,경기도 용인시 수지구 죽전동 1299,경기도 용인시 수지구 죽전로27번길 14-19,37.32314253,127.1136656
안남중학교,중학교,경상남도 창원시 성산구 대방동 373,경상남도 창원시 성산구 창이대로899번길 13,35.20557657,128.7080778
명덕초등학교,초등학교,전라남도 장흥군 회진면 대리 626,전라남도 장흥군 회진면 회진로 805-17,34.47911715,126.9665976
별량초등학교,초등학교,전라남도 순천시 별량면 봉림리 158-1,전라남도 순천시 별량면 별량길 58,34.87574964,127.4521136
풍덕초등학교,초등학교,경기도 용인시 수지구 풍덕천동 664-1,경기도 용인시 수지구 수지로 367,37.33007411,127.0952528
매원초등학교,초등학교,경기도 수원시 영통구 원천동 595,경기도 수원시 영통구 광교호수공원로 100,37.27438801,127.0637213
돌마고등학교,고등학교,경기도 성남시 분당구 이매동 265,경기도 성남시 분당구 이매로 105,37.39327801,127.1321643
청리중학교,중학교,경상북도 상주시 청리면 청하리 954-5,경상북도 상주시 청리면 청하3길 35-16,36.33130095,128.1275037
영강초등학교,초등학교,전라남도 나주시 삼영동 96,전라남도 나주시 영강길 14,35.00697423,126.7125668
초평초등학교,초등학교,충청북도 진천군 초평면 금곡리 712-2,충청북도 진천군 초평면 초동로 143,36.84759282,127.5378317
연서초등학교,초등학교,부산광역시 연제구 연산동 583-3,부산광역시 연제구 거제천로270번길 30,35.19095316,129.0866023
삼성초등학교,초등학교,경기도 안양시 만안구 석수동 168-1,경기도 안양시 만안구 경수대로 1240,37.4195128,126.9119847
인천검단초등학교,초등학교,인천광역시 서구 마전동 산26-3,인천광역시 서구 마전로115번길 24,37.61079703,126.6697067
동성초등학교,초등학교,충청북도 음성군 맹동면 동성리 452,충청북도 음성군 맹동면 학예로 50,36.9130216,127.5441132
현산중학교,중학교,전라남도 해남군 현산면 일평리 507,전라남도 해남군 현산면 탑동리길 39,34.45850567,126.5577407
흥덕초등학교,초등학교,충청북도 청주시 흥덕구 운천동 865,충청북도 청주시 흥덕구 흥덕로 121,36.64563419,127.4737553
한일중학교,중학교,충청북도 음성군 음성읍 읍내리 755,충청북도 음성군 음성읍 예술로 34,36.93614885,127.6852495
한터초등학교,초등학교,경기도 용인시 처인구 양지면 대대리 577,경기도 용인시 처인구 양지면 한터로571번길 4,37.26199118,127.2682539
문의중학교,중학교,충청북도 청주시 상당구 문의면 미천리 108-2,충청북도 청주시 상당구 문의면 대청호반로 832,36.51585586,127.5011211
운천초등학교,초등학교,경기도 오산시 부산동 778-4,경기도 오산시 운암로 116,37.15595103,127.0797631
죽장초등학교상옥분교장,초등학교,경상북도 포항시 북구 죽장면 상옥리 748-1,경상북도 포항시 북구 죽장면 죽장로 1815,36.24665359,129.2138948
성덕초등학교,초등학교,충청남도 논산시 은진면 성덕리 218,충청남도 논산시 은진면 원앙로 1174,36.17664313,127.1293598
용당초등학교,초등학교,전라남도 영암군 삼호읍 용당리 378,전라남도 영암군 삼호읍 아산길 26-10,34.76191557,126.3996953
진평중학교,중학교,경상북도 구미시 진평동 178,경상북도 구미시 인동20길 70,36.09501035,128.4218139
예천초등학교,초등학교,경상북도 예천군 예천읍 서본리 49-6,경상북도 예천군 예천읍 효자로 43,36.65581127,128.4502002
화산초등학교,초등학교,경상북도 영천시 화산면 유성리 607-1,경상북도 영천시 화산면 장수로 942-9,36.02021026,128.8545314
해성국제컨벤션고등학교,고등학교,서울특별시 동대문구 전농동 90-3,서울특별시 동대문구 전농로20길 31,37.5818726,127.0569769
묘산중학교,중학교,경상남도 합천군 묘산면 산제리 10,경상남도 합천군 묘산면 묘산로 157-70,35.66049728,128.1135315
기북초등학교,초등학교,경상북도 포항시 북구 기북면 용기리 126-8,경상북도 포항시 북구 기북면 기북로 452,36.12939435,129.1676241
성수중학교,중학교,서울특별시 성동구 성수동1가 685-143,서울특별시 성동구 서울숲길 18,37.54734181,127.0382534
성동초등학교,초등학교,경상북도 상주시 성동동 77,경상북도 상주시 성동새싹길 14,36.41470707,128.1709229
용인대덕초등학교,초등학교,경기도 용인시 수지구 죽전동 1158,경기도 용인시 수지구 죽전로293번길 14,37.33681391,127.1259149
구산중학교,중학교,인천광역시 부평구 부개동 497-4,인천광역시 부평구 수변로 199,37.5046493,126.7418432
중화고등학교,고등학교,서울특별시 중랑구 중화동 21-4,서울특별시 중랑구 봉화산로27길 62,37.60481461,127.0836541
인천전자마이스터고등학교,고등학교,인천광역시 동구 송림동 47-11,인천광역시 미추홀구 석정로 165,37.47099649,126.6548626
진도지산중학교,중학교,전라남도 진도군 지산면 인지리 194-7,전라남도 진도군 지산면 인지독치1길 21-62,34.41824058,126.1711116
경화여자English Business고등학교,고등학교,경기도 광주시 송정동 52-1,경기도 광주시 수하길11번길 43,37.41824307,127.2639914
헌산중학교,중학교,경기도 용인시 처인구 원삼면 사암리 883,경기도 용인시 처인구 원삼면 내동로 50-13,37.17384579,127.2958775
관인초등학교,초등학교,경기도 포천시 관인면 탄동리 664-1,경기도 포천시 관인면 관인로 5,38.15606601,127.2497002
동화고등학교,고등학교,경기도 남양주시 다산동 4106,경기도 남양주시 경춘로 434,37.60793099,127.1619037
구성고등학교,고등학교,경기도 용인시 기흥구 마북동 545-8,경기도 용인시 기흥구 연원로42번길 47,37.29914483,127.1156348
서울구로남초등학교,초등학교,서울특별시 구로구 구로동 253,서울특별시 구로구 디지털로27길 76,37.48420602,126.8902182
서정리초등학교,초등학교,경기도 평택시 서정동 278,경기도 평택시 서두물로 21,37.05836093,127.0581637
비안초등학교,초등학교,경상북도 의성군 비안면 이두리 287,경상북도 의성군 비안면 강변길 105,36.33748618,128.4949144
백령중학교,중학교,인천광역시 옹진군 백령면 북포리 246,인천광역시 옹진군 백령면 백령로 708,37.96444697,124.6760556
청안중학교,중학교,충청북도 괴산군 청안면 읍내리 231,충청북도 괴산군 청안면 청안읍내로3길 20,36.77314442,127.641906
순천동산중학교,중학교,전라남도 순천시 조례동 1175,전라남도 순천시 유동길 40,34.95537245,127.5157917
의성남부초등학교,초등학교,경상북도 의성군 의성읍 도동리 670,경상북도 의성군 의성읍 문소1길 24,36.34314897,128.7023528
어방초등학교,초등학교,경상남도 김해시 어방동 767-3,경상남도 김해시 활천로 159,35.24007876,128.8991838
대전지족초등학교,초등학교,대전광역시 유성구 지족동 850,대전광역시 유성구 노은서로 238,36.38080834,127.3173106
와우초등학교,초등학교,경기도 화성시 봉담읍 동화리 188,경기도 화성시 봉담읍 식골길 14,37.22010434,126.9719098
도일초등학교,초등학교,경기도 시흥시 거모동 1379,경기도 시흥시 군자로465번길 7,37.34912731,126.7819203
성덕중학교,중학교,대전광역시 유성구 신성동 380-4,대전광역시 유성구 신성로 19,36.38693177,127.3445355
문척초등학교,초등학교,전라남도 구례군 문척면 월전리 286-1,전라남도 구례군 문척면 수달생태로 270,35.19214636,127.4898958
서남초등학교,초등학교,경상남도 양산시 물금읍 범어리 554,경상남도 양산시 물금읍 오봉로 28,35.32802601,128.9984144
인지초등학교,초등학교,충청남도 서산시 인지면 둔당리 산43-6,충청남도 서산시 인지면 둔산1길 1,36.75615023,126.4249945
조마초등학교,초등학교,경상북도 김천시 조마면 강곡리 237,경상북도 김천시 조마면 강곡1길 16-69,36.03270244,128.0992255
유구초등학교,초등학교,충청남도 공주시 유구읍 석남리 189-2,충청남도 공주시 유구읍 유구초교길 12,36.55450238,126.949794
계룡고등학교,고등학교,충청남도 계룡시 두마면 농소리 778,충청남도 계룡시 두마면 서금암로 89,36.26810412,127.258139
서울보라매초등학교,초등학교,서울특별시 동작구 신대방동 488-1,서울특별시 동작구 여의대방로16길 30,37.49585189,126.9161445
신장중학교,중학교,경기도 하남시 신장동 527-1,경기도 하남시 대청로59번길 37,37.54312025,127.218857
한일여자중학교,중학교,경상북도 김천시 교동 527-1,경상북도 김천시 한일길 11-30,36.13774035,128.0958438
포항여자전자고등학교,고등학교,경상북도 포항시 북구 용흥동 430,경상북도 포항시 북구 용흥로291번길 19,36.05062684,129.3477758
예원초등학교,초등학교,경기도 화성시 석우동 52,경기도 화성시 동탄반석로 259,37.21116575,127.076189
작전고등학교,고등학교,인천광역시 계양구 작전동 80,인천광역시 계양구 봉오대로729번길 27,37.53284074,126.7301792
경문고등학교,고등학교,서울특별시 동작구 동작동 산4-2,서울특별시 동작구 동작대로 171,37.49341886,126.9822734
상갈초등학교,초등학교,경기도 용인시 기흥구 상갈동 462,경기도 용인시 기흥구 금화로58번길 17,37.26425129,127.1109979
축산중학교,중학교,경상북도 영덕군 축산면 도곡리 450,경상북도 영덕군 축산면 도곡1길 54,36.51351428,129.4063797
증산초등학교,초등학교,강원특별자치도 정선군 남면 무릉리 412-5,강원특별자치도 정선군 남면 민둥산로 12,37.25492831,128.7807294
지평중학교,중학교,경기도 양평군 지평면 지평리 553,경기도 양평군 지평면 지평로 418,37.47447401,127.6345589
광의초등학교,초등학교,전라남도 구례군 용방면 신지리 585,전라남도 구례군 광의면 광의초교길 23,35.25937074,127.4457859
재릉초등학교,초등학교,제주특별자치도 제주시 한림읍 협재리 2660,제주특별자치도 제주시 한림읍 한림로 288-18,33.38866901,126.2383722
인천석남초등학교,초등학교,인천광역시 서구 석남동 109-32,인천광역시 서구 서달로130번길 4,37.50977877,126.680264
영화국제관광고등학교,고등학교,인천광역시 동구 창영동 36,인천광역시 동구 우각로 39,37.47139745,126.6403955
계산고등학교,고등학교,인천광역시 계양구 계산동 907,인천광역시 계양구 주부토로 588,37.54718933,126.7297335
동인천고등학교,고등학교,인천광역시 남동구 만수동 5-394,인천광역시 남동구 만수로75번길 71-15,37.46583064,126.7352326
고흥과역중학교,중학교,전라남도 고흥군 과역면 과역리 535,전라남도 고흥군 과역면 고흥로 2939-3,34.6756715,127.3579036
제일초등학교,초등학교,경기도 용인시 처인구 양지면 제일리 488-1,경기도 용인시 처인구 양지면 중부대로2517번길 42-7,37.24280483,127.3135289
인하대학교사범대학부속고등학교,고등학교,인천광역시 미추홀구 학익동 306-30,인천광역시 미추홀구 재넘이길123번길 29,37.44596571,126.6628662
김천동신초등학교,초등학교,경상북도 김천시 신음동 1308,경상북도 김천시 신음새동네길 116,36.1314424,128.1218127
영암낭주고등학교,고등학교,전라남도 영암군 학산면 독천리 325,전라남도 영암군 학산면 영산로 76-35,34.72974846,126.5634162
다선초등학교,초등학교,부산광역시 사하구 다대동 3,부산광역시 사하구 다송로 57,35.06300204,128.9856796
신갈중학교,중학교,경기도 용인시 기흥구 신갈동 113,경기도 용인시 기흥구 용구대로2152번길 23,37.28067138,127.1086862
포항여자고등학교,고등학교,경상북도 포항시 북구 학산동 243,경상북도 포항시 북구 장미길 10,36.05064084,129.3643118
삼봉초등학교,초등학교,경기도 안양시 만안구 박달동 114-3,경기도 안양시 만안구 박달로437번길 21,37.40297685,126.8991863
천생초등학교,초등학교,경상북도 구미시 구평동 431-2,경상북도 구미시 인동43길 8,36.09406998,128.4381111
합정초등학교,초등학교,경기도 평택시 합정동 838,경기도 평택시 평택4로 11,36.98938026,127.0977377
백암초등학교,초등학교,경기도 용인시 처인구 백암면 근창리 105,경기도 용인시 처인구 백암면 백원로 501,37.16414573,127.367489997
성의고등학교,고등학교,경상북도 김천시 지좌동 1057-1,경상북도 김천시 성의길 38,36.11395555,128.1389811
도화초등학교,초등학교,전라남도 고흥군 도화면 당오리 518,전라남도 고흥군 도화면 오치길 43-4,34.51119136,127.3184628
모화초등학교,초등학교,경상북도 경주시 외동읍 모화리 237-4,경상북도 경주시 외동읍 계동1길 12,35.67737588,129.3331768
청원중학교,중학교,서울특별시 노원구 상계동 641,서울특별시 노원구 한글비석로 506,37.66525155,127.0625329
경희여자고등학교,고등학교,서울특별시 동대문구 회기동 1-5,서울특별시 동대문구 경희대로 26,37.59394914,127.054891
종곡초등학교,초등학교,충청북도 보은군 보은읍 강신리 384-4,충청북도 보은군 보은읍 강신1길 12-7,36.50203548,127.7498649
강현중학교,중학교,서울특별시 동작구 상도동 335-5,서울특별시 동작구 상도로13라길 22,37.50311599,126.9307563
서호중학교,중학교,경기도 수원시 권선구 서둔동 103-22,경기도 수원시 권선구 서호로 71,37.26639752,126.9877938
별가람중학교,중학교,경기도 남양주시 별내동 911,경기도 남양주시 별내3로 232,37.65912402,127.1225367
원천초등학교,초등학교,전북특별자치도 남원시 주천면 장안리 248,전북특별자치도 남원시 주천면 외평2길 23,35.38845557,127.4454244
인천용마초등학교,초등학교,인천광역시 부평구 청천동 176-4,인천광역시 부평구 세월천로30번길 58,37.51585568,126.7073832
대전은어송중학교,중학교,대전광역시 동구 대성동 134,대전광역시 동구 동구청로 26,36.30045896,127.4609857
양산중학교,중학교,경상남도 양산시 북부동 234,경상남도 양산시 북안북12길 7,35.34965808,129.0439196
안산디자인문화고등학교,고등학교,경기도 안산시 상록구 본오동 798,경기도 안산시 상록구 각골로 87,37.29692001,126.8713099
압해중학교,중학교,전라남도 신안군 압해읍 학교리 663-5,전라남도 신안군 압해읍 구항길 31-5,34.86392837,126.3133306
병영초등학교,초등학교,전라남도 강진군 병영면 성남리 199-7,전라남도 강진군 병영면 하멜로 385,34.71457422,126.8125703
인천서운초등학교,초등학교,인천광역시 계양구 서운동 55-133,인천광역시 계양구 서운로 12,37.52691177,126.7447561
함창중앙초등학교,초등학교,경상북도 상주시 함창읍 대조리 260,경상북도 상주시 함창읍 구향로 87-10,36.57369102,128.1774827
금성초등학교,초등학교,서울특별시 중랑구 신내동 651,서울특별시 중랑구 신내로21길 55,37.61531513,127.0898585
이우중학교,중학교,경기도 성남시 분당구 동원동 157-1,경기도 성남시 분당구 동막로 287,37.35324326,127.090941
인동중학교,중학교,경상북도 구미시 인의동 103,경상북도 구미시 여헌로14길 17,36.10931541,128.4288808
학성중학교,중학교,강원특별자치도 원주시 일산동 250,강원특별자치도 원주시 동진골2길 24,37.35018248,127.9397356
칠성초등학교,초등학교,충청북도 괴산군 칠성면 도정리 311,충청북도 괴산군 칠성면 칠성로 26,36.78564178,127.8623577
옥과초등학교,초등학교,전라남도 곡성군 옥과면 무창리 972,전라남도 곡성군 옥과면 대학로 213,35.27757742,127.1435075
개포고등학교,고등학교,서울특별시 강남구 개포동 173,서울특별시 강남구 개포로 402,37.48495285,127.0594065
오남고등학교,고등학교,경기도 남양주시 오남읍 양지리 80-4,경기도 남양주시 오남읍 진건오남로 784-27,37.69821404,127.2065483
동천초등학교,초등학교,경상북도 경주시 동천동 586-10,경상북도 경주시 알천북로249번길 20,35.84838019,129.2270343
용인대덕중학교,중학교,경기도 용인시 수지구 죽전동 1156,경기도 용인시 수지구 죽전로293번길 12,37.33674758,127.1276076
신기초등학교,초등학교,경상남도 양산시 신기동 511-1,경상남도 양산시 중앙로 239,35.35208418,129.0404978
복창초등학교,초등학교,경기도 평택시 서정동 559-4,경기도 평택시 서정북로 3,37.07122473,127.0503031
개봉중학교,중학교,서울특별시 구로구 개봉동 24-2,서울특별시 구로구 고척로21나길 68,37.50352932,126.8423998
덕적초등학교,초등학교,인천광역시 옹진군 덕적면 진리 136,인천광역시 옹진군 덕적면 덕적남로 15,37.22538058,126.1481953
구미오산초등학교,초등학교,경상북도 구미시 오태동 618-1,경상북도 구미시 금오대로24길 15,36.0720382,128.3530127
산호초등학교,초등학교,경상남도 창원시 마산합포구 산호동 53-1,경상남도 창원시 마산합포구 회원동북로 53,35.21972208,128.5795948
양포초등학교,초등학교,경상북도 포항시 남구 장기면 양포리 487-18,경상북도 포항시 남구 장기면 장기로 33,35.87573109,129.5131575
인천심곡초등학교,초등학교,인천광역시 서구 심곡동 291-8,인천광역시 서구 심곡로 114,37.5436333,126.6826226
성지고등학교,고등학교,경기도 용인시 기흥구 구갈동 599,경기도 용인시 기흥구 갈곡로12번길 13,37.27228468,127.1312675
군위중학교,중학교,대구광역시 군위군 군위읍 정리 248-12,대구광역시 군위군 군위읍 군청로 254-6,36.24547463,128.5697899
서울대학교사범대학부설중학교,중학교,서울특별시 성북구 종암동 7-10,서울특별시 성북구 월곡로 36,37.59582047,127.0391333
문창중학교,중학교,서울특별시 동작구 신대방동 364-58,서울특별시 동작구 여의대방로22나길 40,37.49580287,126.9224055
가야초등학교,초등학교,부산광역시 부산진구 가야동 280-2,부산광역시 부산진구 대학로 22,35.1537258,129.0362693
맹동초등학교,초등학교,충청북도 음성군 맹동면 쌍정리 94,충청북도 음성군 맹동면 대동로 9,36.92695855,127.5641072
하청중학교,중학교,경상남도 거제시 하청면 하청리 698-1,경상남도 거제시 하청면 서리1길 5,34.9546126,128.6529294
양오중학교,중학교,경기도 남양주시 오남읍 양지리 616-2,경기도 남양주시 오남읍 양지로 261-31,37.69767148,127.193132
인천담방초등학교,초등학교,인천광역시 남동구 만수동 1046,인천광역시 남동구 매소홀로 1027,37.4404917,126.7363191
호연초등학교,초등학교,경기도 화성시 장지동 925,경기도 화성시 동탄대로3길 17-7,37.16277708,127.1046985
현덕초등학교광덕분교장,초등학교,경기도 평택시 현덕면 대안리 703,경기도 평택시 현덕면 현덕로 934,36.9441357,126.9440341
성산초등학교,초등학교,경기도 오산시 오산동 524-1,경기도 오산시 성호대로 43,37.1504447,127.0670421
옥성초등학교,초등학교,경상북도 구미시 옥성면 주아리 209,경상북도 구미시 옥성면 주아2길 18-13,36.29683396,128.276015
군포중앙고등학교,고등학교,경기도 군포시 부곡동 1094,경기도 군포시 송부로 239,37.32397274,126.9372177
수륜초등학교,초등학교,경상북도 성주군 수륜면 신파리 41,경상북도 성주군 수륜면 참별로 927,35.83407566,128.1918436
동천초등학교,초등학교,경기도 용인시 수지구 동천동 154,경기도 용인시 수지구 고기로 71,37.34461156,127.0933932
대구대덕초등학교,초등학교,대구광역시 남구 대명동 1571-1,대구광역시 남구 대명서로 28,35.83048863,128.5616736
진명여자고등학교,고등학교,서울특별시 양천구 목동 927-6,서울특별시 양천구 목동로 170,37.52404701,126.8658566
서울신천초등학교,초등학교,서울특별시 송파구 잠실동 27-5,서울특별시 송파구 올림픽로 215,37.5140111,127.0950476
봉명초등학교,초등학교,충청북도 청주시 흥덕구 봉명동 205,충청북도 청주시 흥덕구 봉명로141번길 3,36.63994006,127.456443
신흥여자중학교,중학교,인천광역시 중구 신흥동3가 7-210,인천광역시 중구 인항로24번길 37,37.45404114,126.632101
왕곡초등학교,초등학교,경기도 의왕시 왕곡동 604,경기도 의왕시 왕곡로 58,37.34518014,126.9804912
손불초등학교,초등학교,전라남도 함평군 손불면 대전리 273,전라남도 함평군 손불면 손불중앙길 121,35.14572447,126.4338246
수륜중학교,중학교,경상북도 성주군 수륜면 신파리 82,경상북도 성주군 수륜면 참별로 888,35.83081062,128.1964419
용인홍천고등학교,고등학교,경기도 용인시 수지구 신봉동 885,경기도 용인시 수지구 수지로227번길 22,37.32221072,127.0823971
서룡초등학교,초등학교,경기도 용인시 처인구 역북동 416,경기도 용인시 처인구 중부대로1281번길 11,37.23811035,127.1870731
묵계초등학교청암분교장,초등학교,경상남도 하동군 청암면 평촌리 590-2,경상남도 하동군 청암면 청학로 716,35.15860775,127.7978084
만수여자중학교,중학교,인천광역시 남동구 만수동 27,인천광역시 남동구 만수로50번길 22-36,37.45920281,126.7339412
강남중학교,중학교,서울특별시 동작구 대방동 390-6,서울특별시 동작구 대방동15길 29,37.50276263,126.9233466
부용초등학교,초등학교,충청북도 영동군 영동읍 부용리 81-3,충청북도 영동군 영동읍 학산영동로 1155,36.16725603,127.7671213
삼례중앙초등학교,초등학교,전북특별자치도 완주군 삼례읍 삼례리 205,전북특별자치도 완주군 삼례읍 웃삼례길 17-10,35.91952201,127.0815038
인천효성초등학교,초등학교,인천광역시 계양구 효성동 28-1,인천광역시 계양구 안남로 601,37.536806,126.7106067
성지중학교,중학교,경기도 용인시 기흥구 구갈동 576,경기도 용인시 기흥구 강남서로 26,37.27403886,127.1281168
상주공업고등학교,고등학교,경상북도 상주시 낙양동 388,경상북도 상주시 낙양1길 29,36.40665006,128.1462224
고금초등학교,초등학교,전라남도 완도군 고금면 덕암리 644,전라남도 완도군 고금면 고금동로 17-33,34.39613046,126.8000493
군산진포초등학교,초등학교,전북특별자치도 군산시 나운동 1522,전북특별자치도 군산시 나운안길 54,35.96584164,126.7050252
문창고등학교,고등학교,경상북도 문경시 흥덕동 716,경상북도 문경시 돈달로 145,36.60352544,128.2003063
송악초등학교,초등학교,충청남도 당진시 송악읍 중흥리 257,충청남도 당진시 송악읍 송악로 663-1,36.9406386,126.7432868
간중초등학교,초등학교,전북특별자치도 완주군 용진읍 간중리 616-1,전북특별자치도 완주군 용진읍 간중길 39,35.89126699,127.1817903
가능초등학교,초등학교,경기도 의정부시 가능동 724-3,경기도 의정부시 의정로140번길 15,37.74648346,127.0358337
선산고등학교,고등학교,경상북도 구미시 선산읍 노상리 40,경상북도 구미시 선산읍 단계서4길 18,36.24820115,128.2950623
문기초등학교,초등학교,경기도 안성시 공도읍 양기리 332-25,경기도 안성시 공도읍 서동대로 4424,37.00759866,127.1935952
노은중학교,중학교,충청북도 충주시 노은면 문성리 368,충청북도 충주시 노은면 감노로 1387,37.04837368,127.7529067
역북초등학교,초등학교,경기도 용인시 처인구 김량장동 508-1,경기도 용인시 처인구 명지로 15-30,37.23457297,127.1924469
초당초등학교,초등학교,경기도 용인시 기흥구 중동 1010,경기도 용인시 기흥구 동백중앙로 78,37.26347282,127.1609334
포항항도초등학교,초등학교,경상북도 포항시 북구 학산동 174-1,경상북도 포항시 북구 항도길 13,36.05231017,129.3690341
의성중학교,중학교,경상북도 의성군 의성읍 도동리 649-2,경상북도 의성군 의성읍 구봉길 172,36.34105051,128.7000801
구월중학교,중학교,인천광역시 남동구 구월동 22,인천광역시 남동구 남동대로 814,37.45564732,126.7088267
흥해중학교,중학교,경상북도 포항시 북구 흥해읍 옥성리 168-1,경상북도 포항시 북구 흥해읍 동해대로 1525,36.10921794,129.3411709
인주중학교,중학교,인천광역시 미추홀구 학익동 430-51,인천광역시 미추홀구 매소홀로 335,37.442798,126.6598715
서울서정초등학교,초등학교,서울특별시 양천구 목동 927-5,서울특별시 양천구 목동로8길 19,37.52345012,126.8672362
남당초등학교,초등학교,충청북도 제천시 영천동 760,충청북도 제천시 청풍호로2길 4-5,37.13106115,128.202003
청옥중학교,중학교,경기도 평택시 청북읍 옥길리 1126,경기도 평택시 청북읍 안청로1길 11,37.01478998,126.9150395
신흥중학교,중학교,경상북도 포항시 남구 오천읍 세계리 700-3,경상북도 포항시 남구 오천읍 장기로 1636,35.96497037,129.4224437
명곡여자중학교,중학교,경상남도 창원시 의창구 명서동 117,경상남도 창원시 의창구 우곡로159번길 32,35.24370853,128.6449711
고척중학교,중학교,서울특별시 구로구 고척동 76-2,서울특별시 구로구 중앙로3길 20,37.49974083,126.8613425
대진디자인고등학교,고등학교,서울특별시 강남구 수서동 733,서울특별시 강남구 광평로39길 93,37.49042815,127.0959793
해오름초등학교,초등학교,경기도 안양시 동안구 관양동 1671,경기도 안양시 동안구 동편로 117,37.41074576,126.9691932
순천여자고등학교,고등학교,전라남도 순천시 저전동 88,전라남도 순천시 저전길 54,34.94777692,127.4831409
부용고등학교,고등학교,경기도 의정부시 민락동 757-1,경기도 의정부시 오목로 96,37.73630575,127.0929481
산인초등학교,초등학교,경상남도 함안군 산인면 내인리 204,경상남도 함안군 산인면 송산로 136-20,35.28979534,128.4333858
인천바이오과학고등학교,고등학교,인천광역시 연수구 청학동 455-1,인천광역시 연수구 용담로 12,37.42084997,126.6683713
송호초등학교,초등학교,전라남도 해남군 송지면 송호리 900-2,전라남도 해남군 송지면 송호길 5,34.316782,126.518588
순천북초등학교,초등학교,전라남도 순천시 매곡동 425-1,전라남도 순천시 북정2길 20,34.96452429,127.4837201
금정초등학교,초등학교,경기도 군포시 금정동 703,경기도 군포시 금정로 40,37.36646403,126.941225
충주예성여자고등학교,고등학교,충청북도 충주시 호암동 526-1,충청북도 충주시 호암대로 42,36.95460514,127.9306001
매화초등학교,초등학교,경기도 안산시 상록구 이동 608,경기도 안산시 상록구 안산대학로 35,37.30591091,126.862365
선학중학교,중학교,인천광역시 연수구 선학동 344,인천광역시 연수구 선학로 19,37.42065709,126.6984252
서울신남성초등학교,초등학교,서울특별시 동작구 사당동 199-1,서울특별시 동작구 사당로 146,37.48815254,126.9648699619
서울선곡초등학교,초등학교,서울특별시 노원구 월계동 446,서울특별시 노원구 광운로2길 1,37.61869443,127.0578029
곤지암초등학교,초등학교,경기도 광주시 곤지암읍 곤지암리 453-2,경기도 광주시 곤지암읍 곤지암로 70-13,37.34966983,127.3381352
용암중학교,중학교,경상북도 성주군 용암면 본리리 724,경상북도 성주군 용암면 상성로 222,35.84136913,128.314491
경기체육고등학교,고등학교,경기도 수원시 장안구 천천동 30-1,경기도 수원시 장안구 상률로 106,37.30395971,126.9785339
탄금중학교,중학교,충청북도 충주시 칠금동 822,충청북도 충주시 우륵로 56,36.98457662,127.9195118
동성초등학교,초등학교,경상북도 문경시 마성면 오천리 595-2,경상북도 문경시 마성면 동성길 80,36.68232706,128.1273632
경민여자중학교,중학교,경기도 의정부시 가능동 산35-8,경기도 의정부시 서부로 545,37.74612458,127.0251316
중산고등학교,고등학교,서울특별시 강남구 일원동 714,서울특별시 강남구 일원로14길 22,37.48574293,127.0814285
영암금정중학교,중학교,전라남도 영암군 금정면 용흥리 1052,전라남도 영암군 금정면 영나로 836,34.86128538,126.7534747
보성고등학교,고등학교,서울특별시 송파구 방이동 89-22,서울특별시 송파구 양재대로 1278,37.52008989,127.1357293
미양초등학교,초등학교,경기도 안성시 미양면 양지리 201,경기도 안성시 미양면 양지길 40,36.97502193,127.2127599
동주중학교,중학교,부산광역시 사상구 주례동 543,부산광역시 사상구 주례로 107,35.14590297,129.0039409
금마초등학교,초등학교,충청남도 홍성군 금마면 부평리 108,충청남도 홍성군 금마면 광금북로 484,36.61406155,126.7320903
우만초등학교,초등학교,경기도 수원시 팔달구 우만동 300-3,경기도 수원시 팔달구 창룡대로210번길 20,37.29144659,127.0324161
분평초등학교,초등학교,충청북도 청주시 서원구 분평동 1198,충청북도 청주시 서원구 무심서로 205,36.61357774,127.4930652
효암고등학교,고등학교,경상남도 양산시 삼호동 747,경상남도 양산시 서창로 144,35.41239092,129.1699843
정읍고등학교,고등학교,전북특별자치도 정읍시 시기동 37-1,전북특별자치도 정읍시 정읍사로 594,35.55532014,126.8654309
원일중학교,중학교,경기도 안산시 단원구 선부동 1062,경기도 안산시 단원구 석수로 32,37.33944264,126.8086767
강진동초등학교,초등학교,전라남도 강진군 강진읍 동성리 202,전라남도 강진군 강진읍 중앙로 180,34.6411847,126.7762172
수기초등학교,초등학교,경기도 화성시 봉담읍 수기리 26-2,경기도 화성시 봉담읍 수기웃말길 27,37.20162367,126.9813231
서울신동초등학교,초등학교,서울특별시 서초구 잠원동 54-5,서울특별시 서초구 나루터로 15,37.51713004,127.0113904
대전지족중학교,중학교,대전광역시 유성구 지족동 879,대전광역시 유성구 노은동로 193,36.37793595,127.3208044
중부초등학교,초등학교,경기도 성남시 중원구 은행동 1932-7,경기도 성남시 중원구 자혜로 55,37.45154694,127.1649507
와룡중학교,중학교,대구광역시 달서구 이곡동 1189-1,대구광역시 달서구 선원남로 23,35.85830017,128.5020267
서울대영초등학교,초등학교,서울특별시 영등포구 신길동 341-1,서울특별시 영등포구 신길로23길 43,37.50267937,126.9063367
화순제일중학교,중학교,전라남도 화순군 화순읍 대리 130,전라남도 화순군 화순읍 칠충로 33,35.0548525,126.9747483
서울동구고등학교,고등학교,서울특별시 성북구 성북동 168-275,서울특별시 성북구 성북로8길 71,37.59410587,127.0082153
압해동초등학교,초등학교,전라남도 신안군 압해읍 신장리 518-1,전라남도 신안군 압해읍 압해로 378-6,34.84124642,126.3549562
금성고등학교,고등학교,부산광역시 동구 좌천동 784-1,부산광역시 동구 증산로 83,35.13463713,129.0515092
가거도초등학교,초등학교,전라남도 신안군 흑산면 가거도리 266,전라남도 신안군 흑산면 가거도길 18-31,34.05255202,125.1302548
상색초등학교,초등학교,경기도 가평군 가평읍 상색리 171-2,경기도 가평군 가평읍 태봉두밀로 34-31,37.80540353,127.4849856
성광여자고등학교,고등학교,울산광역시 남구 옥동 907-1,울산광역시 남구 남부순환도로 97,35.54314574,129.2658489
리라초등학교,초등학교,서울특별시 중구 예장동 8-148,서울특별시 중구 소파로2길 7,37.5578197,126.9879121
금사중학교,중학교,부산광역시 금정구 서동 50,부산광역시 금정구 서금로 53-7,35.22098889,129.1067397
은척초등학교,초등학교,경상북도 상주시 은척면 봉중리 318,경상북도 상주시 은척면 봉중2길 10,36.53191343,128.0709192
대전양지초등학교,초등학교,대전광역시 대덕구 법동 196-2,대전광역시 대덕구 쌍청당로 45,36.36551971,127.4337958
낙산초등학교,초등학교,경상북도 칠곡군 왜관읍 낙산리 663,경상북도 칠곡군 왜관읍 강변대로 754,35.94516578,128.4026207
서종중학교,중학교,경기도 양평군 서종면 문호리 687-2,경기도 양평군 서종면 북한강로 854,37.61360872,127.3507988
봉곡중학교,중학교,경상북도 구미시 봉곡동 51,경상북도 구미시 봉곡서로11안길 9-8,36.15883003,128.3045998
안산중앙초등학교,초등학교,경기도 안산시 단원구 고잔동 673-1,경기도 안산시 단원구 예술대학로 50,37.32172574,126.8373946
구룡포초등학교,초등학교,경상북도 포항시 남구 구룡포읍 구룡포리 765-1,경상북도 포항시 남구 구룡포읍 구룡포길 61,35.99090277,129.5517505
서울서래초등학교,초등학교,서울특별시 서초구 방배동 771,서울특별시 서초구 방배로 260,37.496404,126.9901565
오현고등학교,고등학교,제주특별자치도 제주시 화북일동 4675,제주특별자치도 제주시 일주동로 101,33.51780188,126.5564487
광주수창초등학교,초등학교,광주광역시 북구 북동 104-18,광주광역시 북구 금남로 99,35.15618871,126.9066548
곡반중학교,중학교,경기도 수원시 권선구 곡반정동 519,경기도 수원시 권선구 동수원로146번길 144-7,37.2443514,127.0330821
일죽중학교,중학교,경기도 안성시 일죽면 송천리 243-1,경기도 안성시 일죽면 서동대로 7446,37.09147028,127.4733715
소수중학교,중학교,경상북도 영주시 순흥면 읍내리 370-1,경상북도 영주시 순흥면 순흥로 24,36.91253449,128.5775449
인천한길초등학교,초등학교,인천광역시 부평구 삼산동 393-1,인천광역시 부평구 영성중로 32,37.51911675,126.7455438
대전상원초등학교,초등학교,대전광역시 유성구 상대동 485,대전광역시 유성구 상대서로 46,36.34239041,127.3332626
망포중학교,중학교,경기도 수원시 영통구 망포동 556-6,경기도 수원시 영통구 태장로82번길 15,37.23823478,127.0559614
영원중학교,중학교,서울특별시 영등포구 영등포동 576-6,서울특별시 영등포구 영등포로62길 31,37.51497419,126.9136469
봉명중학교,중학교,충청북도 청주시 흥덕구 봉명동 1305,충청북도 청주시 흥덕구 백봉로224번길 59,36.6468051,127.4604183
태을초등학교,초등학교,경기도 군포시 산본동 1089,경기도 군포시 산본로 451-49,37.37205306,126.9263632
비룡초등학교,초등학교,경기도 안성시 당왕동 536-2,경기도 안성시 비룡로 78,37.01502455,127.2628264
한국마사고등학교,고등학교,전북특별자치도 장수군 장계면 명덕리 1359,전북특별자치도 장수군 장계면 명덕길 14,35.72425456,127.6344655
도평초등학교,초등학교,제주특별자치도 제주시 도평동 866,제주특별자치도 제주시 도평길 17,33.48082926,126.4467736
탄천초등학교,초등학교,경기도 성남시 분당구 정자동 195,경기도 성남시 분당구 내정로 20,37.36159606,127.1156357
고색초등학교,초등학교,경기도 수원시 권선구 고색동 887-59,경기도 수원시 권선구 매송고색로 681,37.25156123,126.9783835
대원초등학교,초등학교,경상남도 창원시 의창구 대원동 43,경상남도 창원시 성산구 두대로55번길 23,35.23361611,128.6510559
함현중학교,중학교,경기도 시흥시 정왕동 1877-4,경기도 시흥시 역전로 435,37.36379852,126.7369618
현일중학교,중학교,경상북도 구미시 고아읍 항곡리 468-1,경상북도 구미시 고아읍 선산대로 656,36.18720149,128.349288
아주중학교,중학교,서울특별시 송파구 잠실동 115,서울특별시 송파구 올림픽로4길 69,37.50523028,127.0765497
주문진중학교,중학교,강원특별자치도 강릉시 주문진읍 교항리 48-119,강원특별자치도 강릉시 주문진읍 연주로 294,37.88028383,128.8278508
죽곡초등학교,초등학교,전라남도 곡성군 죽곡면 태평리 614,전라남도 곡성군 죽곡면 오죽로 43,35.15328594,127.3180357
청동초등학교,초등학교,부산광역시 영도구 청학동 71-1,부산광역시 영도구 태종로 422번길 51,35.08811888,129.0673548
정자초등학교,초등학교,경기도 수원시 장안구 정자동 873,경기도 수원시 장안구 장안로 191,37.29957588,126.9951959
남양중학교,중학교,경기도 화성시 남양읍 남양리 1663,경기도 화성시 남양읍 시청로45번길 9-12,37.20792368,126.8215994
안계초등학교,초등학교,경상북도 의성군 안계면 토매리 110-15,경상북도 의성군 안계면 안계길 68,36.38160912,128.4451833
서명초등학교,초등학교,부산광역시 동래구 명장동 556-3,부산광역시 금정구 명서로 48,35.2151646,129.094634
원량초등학교연화분교장,초등학교,경상남도 통영시 욕지면 연화리 161-4,경상남도 통영시 욕지면 십리골길 40,34.64862618,128.3532992
충주공업고등학교,고등학교,충청북도 충주시 용산동 453,충청북도 충주시 형설로 120,36.96556942,127.9404948
옥계동부초등학교,초등학교,경상북도 구미시 옥계동 910,경상북도 구미시 옥계북로 89,36.13910909,128.427625
고흥중학교,중학교,전라남도 고흥군 고흥읍 남계리 238,전라남도 고흥군 고흥읍 고흥로 1847,34.61480957,127.2890618
중앙기독중학교,중학교,경기도 수원시 영통구 원천동 134,경기도 수원시 영통구 월드컵로 70,37.27533477,127.0576904
솔밭초등학교,초등학교,충청북도 청주시 흥덕구 복대동 288-9,충청북도 청주시 흥덕구 대농로 42,36.64163731,127.4260895
강원체육고등학교,고등학교,강원특별자치도 춘천시 송암동 133,강원특별자치도 춘천시 자라우새길 126,37.85912229,127.694804
증도초등학교,초등학교,전라남도 신안군 증도면 증동리 1812-2,전라남도 신안군 증도면 문준경길 218,35.00214094,126.1373159
안동중학교,중학교,경상북도 안동시 태화동 255,경상북도 안동시 태화1길 14,36.56465434,128.7119477
웅동초등학교,초등학교,경상남도 창원시 진해구 마천동 144-8,경상남도 창원시 진해구 마천로 29,35.12709443,128.7838078
외솔초등학교,초등학교,울산광역시 중구 서동 621,울산광역시 중구 종가로 700,35.58367236,129.3426444
군산경포초등학교,초등학교,전북특별자치도 군산시 조촌동 461,전북특별자치도 군산시 백릉로 75,35.97659337,126.7347144
부산삼육초등학교,초등학교,부산광역시 금정구 청룡동 2-6,부산광역시 금정구 금정도서관로 17,35.27276329,129.0947495
한강중학교,중학교,서울특별시 용산구 서빙고동 4-1,서울특별시 용산구 녹사평대로 73,37.52361192,126.9927909
해인중학교,중학교,경상남도 합천군 가야면 황산리 180-1,경상남도 합천군 가야면 가조가야로 2871,35.75875748,128.1358164
소현초등학교,초등학교,경기도 용인시 수지구 상현동 854,경기도 용인시 수지구 만현로133번길 78,37.30192517,127.0924337
국수중학교,중학교,경기도 양평군 양서면 국수리 330-12,경기도 양평군 양서면 대심상심길 13,37.51009186,127.4009331
예산예화여자고등학교,고등학교,충청남도 예산군 예산읍 주교리 125-1,충청남도 예산군 예산읍 예산로 117,36.68005465,126.8390082
목포중앙고등학교,고등학교,전라남도 목포시 대양동 208-4,전라남도 목포시 지적로 36,34.8347188,126.4258535
온산초등학교,초등학교,울산광역시 울주군 온산읍 덕신리 327-1,울산광역시 울주군 온산읍 신온9길 16,35.42841273,129.3144727
한광중학교,중학교,경기도 평택시 비전동 504,경기도 평택시 중앙1로 115,36.99789035,127.0960037
오성중학교,중학교,경기도 평택시 오성면 숙성리 125,경기도 평택시 오성면 오성새싹길 6,37.00918156,126.9806408
이수중학교,중학교,서울특별시 서초구 방배동 974-22,서울특별시 서초구 방배중앙로3길 32,37.48063003,126.989859
남산초등학교,초등학교,강원특별자치도 춘천시 남산면 방곡리 129,강원특별자치도 춘천시 남산면 한치로 59,37.79325182,127.6454292
분포고등학교,고등학교,부산광역시 남구 용호동 176-66,부산광역시 남구 분포로 57,35.12981258,129.115149
하북초등학교,초등학교,경상남도 양산시 하북면 순지리 702,경상남도 양산시 하북면 신평로 2,35.48995828,129.0884935
고성동중학교,중학교,경상남도 고성군 거류면 당동리 235,경상남도 고성군 거류면 당동1길 59-14,34.98773566,128.4012968
기산초등학교,초등학교,전라남도 함평군 함평읍 기각리 737,전라남도 함평군 함평읍 기산길 63,35.06782404,126.516739
화순제일초등학교,초등학교,전라남도 화순군 화순읍 일심리 327,전라남도 화순군 화순읍 알메로 8,35.05623971,126.9948105
장유초등학교,초등학교,경상남도 김해시 무계동 132,경상남도 김해시 능동로 190,35.20509683,128.8118572
동진여자중학교,중학교,경상남도 창원시 진해구 풍호동 740-1,경상남도 창원시 진해구 진해대로982번길 26,35.14258248,128.7039422
제주대학교사범대학부설중학교,중학교,제주특별자치도 제주시 용담삼동 581,제주특별자치도 제주시 용담로7길 33,33.51592494,126.5085016
서신중학교,중학교,경기도 화성시 서신면 상안리 872,경기도 화성시 서신면 바다뜰길 49-9,37.1695636,126.7005959
미사강변초등학교,초등학교,경기도 하남시 선동 424,경기도 하남시 미사강변북로55번길 70,37.57582425,127.1860041
대구감천초등학교,초등학교,대구광역시 달서구 월성동 269,대구광역시 달서구 구마로12길 60,35.83522361,128.5330966
숭산초등학교,초등학교,경상북도 칠곡군 북삼읍 보손리 264-1,경상북도 칠곡군 북삼읍 보손4길 20,36.05385834,128.3144914
송지고등학교,고등학교,전라남도 해남군 송지면 미야리 821,전라남도 해남군 송지면 미야길 158-16,34.38449027,126.5157373
본촌초등학교,초등학교,광주광역시 북구 본촌동 2999,광주광역시 북구 본촌택지로30번길 22,35.21523512,126.881492
홍익대학교사범대학부속중학교,중학교,서울특별시 성북구 성북동 151,서울특별시 성북구 성북로14가길 23,37.59366662,127.002805
한천초등학교,초등학교,제주특별자치도 제주시 용담일동 254-1,제주특별자치도 제주시 남성로11길 22,33.50733353,126.5127972
평택여자고등학교,고등학교,경기도 평택시 세교동 1-2,경기도 평택시 영신로 220,37.01260333,127.0897392
서울청파초등학교,초등학교,서울특별시 용산구 청파동2가 1-42,서울특별시 용산구 효창원로 228,37.5473049,126.9635439
하원초등학교,초등학교,경기도 성남시 중원구 금광동 2412,경기도 성남시 중원구 광명로 396,37.44625438,127.1702362
영랑초등학교,초등학교,강원특별자치도 속초시 영랑동 163-1,강원특별자치도 속초시 중앙로 331,38.21791984,128.5905961
병곡초등학교,초등학교,경상북도 영덕군 병곡면 병곡리 84-1,경상북도 영덕군 병곡면 영길 103-10,36.60185573,129.4091254
전주성심여자중학교,중학교,전북특별자치도 전주시 완산구 교동 280,전북특별자치도 전주시 완산구 경기전길 130,35.81195132,127.150661
재송중학교,중학교,부산광역시 해운대구 재송동 1033-1,부산광역시 해운대구 재반로165번길 16,35.19316189,129.128547
인천부마초등학교,초등학교,인천광역시 부평구 산곡동 100-87,인천광역시 부평구 안남로253번길 41,37.50634715,126.7058972
계림중학교,중학교,경상북도 경주시 황성동 469-8,경상북도 경주시 용담로 68,35.86411253,129.214146
남악초등학교,초등학교,전라남도 무안군 삼향읍 남악리 1587,전라남도 무안군 삼향읍 남악영산길 6,34.81277169,126.4740206
서울옥정초등학교,초등학교,서울특별시 성동구 옥수동 233-16,서울특별시 성동구 한림말길 43,37.54230974,127.0157855
대청초등학교,초등학교,인천광역시 옹진군 대청면 대청리 1085,인천광역시 옹진군 대청면 대청로244번길 110,37.83260281,124.6968435
해평초등학교,초등학교,경상북도 구미시 해평면 월호리 395,경상북도 구미시 해평면 월호2길 5,36.20259644,128.3916218
오성초등학교,초등학교,경기도 평택시 오성면 죽리 70,경기도 평택시 오성면 숙성시장길 15,37.00824384,126.9786058
옥대초등학교,초등학교,경상북도 영주시 단산면 옥대리 200,경상북도 영주시 단산면 아호로26번길 22,36.95096282,128.6200584
수일초등학교,초등학교,경기도 수원시 장안구 파장동 411,경기도 수원시 장안구 수일로 85,37.31086106,127.0008865
강하중학교,중학교,경기도 양평군 강하면 왕창리 44-1,경기도 양평군 강하면 왕창부로길 74-3,37.48253125,127.4050751
대구교육대학교안동부설초등학교,초등학교,경상북도 안동시 명륜동 산156-5,경상북도 안동시 단원로 222,36.56982333,128.728641
서울봉은초등학교,초등학교,서울특별시 강남구 삼성동 79-2,서울특별시 강남구 학동로 610,37.52008269,127.0609329
화령고등학교,고등학교,경상북도 상주시 화서면 달천리 503-1,경상북도 상주시 화서면 중화로 2187,36.44245211,127.9458942
인천병방초등학교,초등학교,인천광역시 계양구 병방동 432-1,인천광역시 계양구 병방로 2,37.5466581,126.7403118
장기초등학교,초등학교,경상북도 포항시 남구 장기면 마현리 331,경상북도 포항시 남구 장기면 장기로 336,35.89700969,129.4943247
화동중학교,중학교,경상북도 상주시 화동면 이소리 323,경상북도 상주시 화동면 이소3길 86-6,36.3884768,127.9587288
학남고등학교,고등학교,대구광역시 북구 국우동 1080-1,대구광역시 북구 학남로 78,35.94627087,128.5691977
문향고등학교,고등학교,전라남도 장성군 장성읍 기산리 386-2,전라남도 장성군 장성읍 문화로 94,35.30341746,126.7680095
신림초등학교,초등학교,전북특별자치도 고창군 신림면 법지리 13-1,전북특별자치도 고창군 신림면 동법지길 61,35.49424843,126.7001969
성남수정초등학교,초등학교,경기도 성남시 수정구 수진동 4347,경기도 성남시 수정구 제일로123번길 9,37.43621121,127.1327837
중문고등학교,고등학교,제주특별자치도 서귀포시 대포동 472,제주특별자치도 서귀포시 일주서로570번길 19,33.25486483,126.4468949
무을중학교,중학교,경상북도 구미시 무을면 무등리 327,경상북도 구미시 무을면 무등2길 21-14,36.25877943,128.1891946
북삼초등학교,초등학교,경상북도 칠곡군 북삼읍 인평리 327-5,경상북도 칠곡군 북삼읍 인평중앙로 43,36.06412974,128.3427989
하백초등학교,초등학교,광주광역시 북구 매곡동 339,광주광역시 북구 하백로5번길 10,35.18860042,126.8889108
망포고등학교,고등학교,경기도 수원시 영통구 망포동 672-6,경기도 수원시 영통구 동탄지성로 468,37.23382741,127.0464357
대구장성초등학교,초등학교,대구광역시 달서구 장기동 50,대구광역시 달서구 달구벌대로 1429-11,35.85035905,128.523264
장평중학교,중학교,부산광역시 사하구 감천동 567-9,부산광역시 사하구 사하로 134-1,35.09396796,128.9944685
인천도담초등학교,초등학교,인천광역시 서구 청라동 178-8,인천광역시 서구 청라커낼로 217,37.52782132,126.6439914
신일중학교,중학교,서울특별시 강북구 미아동 193-1,서울특별시 강북구 솔매로49길 20,37.62796722,127.0284273
용지초등학교,초등학교,경상남도 창원시 성산구 중앙동 22,경상남도 창원시 성산구 원이대로538번길 24,35.22889716,128.6719623
원묵중학교,중학교,서울특별시 중랑구 묵동 12,서울특별시 중랑구 신내로23길 57,37.61777209,127.0843728
의정부효자초등학교,초등학교,경기도 의정부시 신곡동 784-1,경기도 의정부시 부용로204번길 16,37.75027839,127.0779303
용암초등학교,초등학교,강원특별자치도 화천군 하남면 용암리 1048,강원특별자치도 화천군 하남면 용화산로 1325,38.08949697,127.6998338
청주중앙여자중학교,중학교,충청북도 청주시 청원구 사천동 229-5,충청북도 청주시 청원구 율천북로 59,36.66404363,127.4778871
자은초등학교,초등학교,경상남도 창원시 진해구 자은동 396,경상남도 창원시 진해구 자은로88번길 41,35.14965907,128.7120764
성당중학교,중학교,전북특별자치도 익산시 성당면 갈산리 407-1,전북특별자치도 익산시 성당면 함안로 671-333,36.08732668,126.9295696
용궁중학교,중학교,경상북도 예천군 용궁면 읍부리 251-3,경상북도 예천군 용궁면 읍부1길 33,36.61022138,128.2751173
경인중학교,중학교,서울특별시 구로구 개봉동 143-4,서울특별시 구로구 경인로 301,37.49846566,126.8536725
율전중학교,중학교,경기도 수원시 장안구 율전동 168-41,경기도 수원시 장안구 덕영대로381번길 59,37.30336795,126.9663526
대구성동초등학교,초등학교,대구광역시 수성구 황금동 373,대구광역시 수성구 청수로45길 27,35.84090465,128.6322834
임천초등학교,초등학교,충청남도 부여군 임천면 군사리 252,충청남도 부여군 임천면 성흥로97번길 15,36.19104513,126.8927134
인천공촌초등학교,초등학교,인천광역시 서구 공촌동 277-2,인천광역시 서구 심곡로188번길 21,37.54867977,126.6832573
보덕중학교,중학교,충청북도 보은군 탄부면 하장리 27-1,충청북도 보은군 탄부면 삼승탄부로 843-21,36.43629365,127.8049905
대명중학교,중학교,서울특별시 강남구 대치동 952,서울특별시 강남구 역삼로87길 26,37.50633641,127.0609849
순천신흥초등학교,초등학교,전라남도 순천시 조례동 1615,전라남도 순천시 장선배기길 60,34.95399932,127.528059
약사중학교,중학교,울산광역시 중구 약사동 571-1,울산광역시 중구 평산4길 10,35.57095263,129.3390424
삼일중학교,중학교,경기도 수원시 팔달구 매향동 10-22,경기도 수원시 팔달구 수원천로 342,37.28439868,127.0185096
아화중학교,중학교,경상북도 경주시 서면 아화리 123,경상북도 경주시 서면 아화양지길 41,35.90011301,129.0472989
대전대화중학교,중학교,대전광역시 대덕구 오정동 16,대전광역시 대덕구 대오길 9,36.36177829,127.4144323
임원초등학교,초등학교,강원특별자치도 삼척시 원덕읍 임원리 800,강원특별자치도 삼척시 원덕읍 삼척로 1246,37.23608331,129.3422397
부산동여자고등학교,고등학교,부산광역시 수영구 남천동 65,부산광역시 수영구 남천서로32번길 39,35.14602702,129.1047285
청룡초등학교장고분교장,초등학교,충청남도 보령시 오천면 삽시도리 884,충청남도 보령시 오천면 장고도2길 18,36.38896166,126.3361657
경북여자고등학교,고등학교,대구광역시 중구 남산동 714-2,대구광역시 중구 중앙대로 288,35.85842716,128.5922004
내수초등학교,초등학교,충청북도 청주시 청원구 내수읍 마산리 171,충청북도 청주시 청원구 내수읍 마산1길 114-1,36.72690548,127.5368015
달성고등학교,고등학교,대구광역시 서구 내당동 467-1,대구광역시 서구 달구벌대로 1725,35.85893186,128.5553428
합성초등학교,초등학교,경상남도 창원시 마산회원구 합성동 76-5,경상남도 창원시 마산회원구 합성북16길 75,35.24278276,128.5819015
홍익대학교사범대학부속초등학교,초등학교,서울특별시 마포구 성산동 산11-31,서울특별시 마포구 성미산로 51,37.55964474,126.9132084
안강여자중학교,중학교,경상북도 경주시 안강읍 산대리 1855-3,경상북도 경주시 안강읍 화전길 62-8,35.99333192,129.2108268
남양고등학교,고등학교,경기도 화성시 남양읍 남양리 1633-1,경기도 화성시 남양읍 시청로45번길 23,37.2079709,126.8234064
한국미래산업고등학교,고등학교,경상북도 영주시 하망동 595,경상북도 영주시 영봉로 49,36.81859532,128.6455598
양평동초등학교,초등학교,경기도 양평군 양평읍 창대리 639,경기도 양평군 양평읍 창대길 20-8,37.48822139,127.5071031
부석초등학교,초등학교,충청남도 서산시 부석면 취평리 387-2,충청남도 서산시 부석면 취평2길 37-6,36.71699797,126.3923519
서산중앙고등학교,고등학교,충청남도 서산시 동문동 173-2,충청남도 서산시 벌말1길 23,36.77887182,126.471964
증평공업고등학교,고등학교,충청북도 증평군 증평읍 증천리 713,충청북도 증평군 증평읍 광장로 180,36.78091382,127.5903231
경원고등학교,고등학교,부산광역시 부산진구 당감동 611-1,부산광역시 부산진구 백양관문로 40,35.16371025,129.0318871
삼일고등학교,고등학교,경기도 수원시 팔달구 매향동 10-22,경기도 수원시 팔달구 수원천로392번길 44-28,37.28638393,127.0196791
원남초등학교,초등학교,충청북도 음성군 원남면 보룡리 371-1,충청북도 음성군 원남면 보천로65번길 22,36.87880844,127.65381
단구중학교,중학교,강원특별자치도 원주시 단구동 1675,강원특별자치도 원주시 단구로 405,37.32082488,127.9568666
서울난곡초등학교,초등학교,서울특별시 관악구 신림동 711-136,서울특별시 관악구 난곡로35길 102,37.4691282,126.9163416
강화고등학교,고등학교,인천광역시 강화군 강화읍 국화리 198-1,인천광역시 강화군 강화읍 고비고개로 20,37.74802846,126.4738138
나산초등학교,초등학교,전라남도 함평군 나산면 삼축리 389-5,전라남도 함평군 나산면 함장로 2441-8,35.11684917,126.6065285
인천청라고등학교,고등학교,인천광역시 서구 청라동 137-2,인천광역시 서구 담지로86번길 16-14,37.53720827,126.6607696
노은초등학교,초등학교,충청북도 충주시 노은면 연하리 535-2,충청북도 충주시 노은면 연하중앙길 27,37.04849541,127.7556142
병영상업고등학교,고등학교,전라남도 강진군 병영면 성남리 316,전라남도 강진군 병영면 하멜로 372,34.71314245,126.8136156
유천초등학교,초등학교,경상북도 청도군 청도읍 유호리 623,경상북도 청도군 청도읍 유천강변길 68,35.57306921,128.7657884
구포중학교,중학교,부산광역시 북구 구포동 1139,부산광역시 북구 백양대로1016번다길 31,35.19495587,128.9964987
진주초등학교,초등학교,강원특별자치도 삼척시 남양동 178,강원특별자치도 삼척시 사직로1길 23,37.43304777,129.1657583
동내초등학교,초등학교,강원특별자치도 춘천시 동내면 신촌리 491,강원특별자치도 춘천시 동내면 동내로 131,37.85129444,127.7657926
대송중학교,중학교,경상북도 포항시 남구 대송면 남성리 83-5,경상북도 포항시 남구 대송면 남성길 100,35.97786663,129.3595369
다산중학교,중학교,경상북도 고령군 다산면 월성리 210,경상북도 고령군 다산면 다산로 443,35.81511901,128.4287221
성주초등학교,초등학교,경상남도 창원시 성산구 가음동 25,경상남도 창원시 성산구 가음정로 127,35.20550265,128.6987849
용문중학교,중학교,경상북도 예천군 용문면 상금곡리 638-1,경상북도 예천군 용문면 상금시장길 45-2,36.69227695,128.4063279
내토중학교,중학교,충청북도 제천시 장락동 687-1,충청북도 제천시 장락로 18,37.14473386,128.2222801
용암중학교,중학교,충청북도 청주시 상당구 용암동 2081,충청북도 청주시 상당구 용암로 18,36.61120432,127.5095846
탄부초등학교,초등학교,충청북도 보은군 탄부면 덕동리 77,충청북도 보은군 탄부면 덕동벽지길 13,36.42534452,127.776841
대구화남초등학교,초등학교,대구광역시 달성군 화원읍 명곡리 113,대구광역시 달성군 화원읍 명천로 181,35.80002003,128.498009
초락초등학교,초등학교,충청남도 당진시 석문면 초락도리 210-3,충청남도 당진시 석문면 샛터말길 35,36.9930801,126.5104722
상봉초등학교,초등학교,충청북도 청주시 흥덕구 오송읍 상봉리 242-1,충청북도 청주시 흥덕구 오송읍 상봉길 9,36.63825053,127.2861418
현화고등학교,고등학교,경기도 평택시 안중읍 현화리 830-1,경기도 평택시 안중읍 안현로서8길 65,36.97877848,126.9170752
몽탄초등학교,초등학교,전라남도 무안군 몽탄면 사천리 170,전라남도 무안군 몽탄면 몽탄로 878,34.92937429,126.5014993
한국조형예술고등학교,고등학교,부산광역시 남구 용호동 506-39,부산광역시 남구 동명로169번길 38,35.12048796,129.1165597
모락중학교,중학교,경기도 의왕시 오전동 11-4,경기도 의왕시 모락로 110,37.3680803,126.9677165
남강중학교,중학교,서울특별시 관악구 신림동 627-1,서울특별시 관악구 난곡로34길 80,37.47137567,126.9249091
명호초등학교,초등학교,부산광역시 강서구 명지동 3232-6,부산광역시 강서구 명지오션시티2로 41,35.08526967,128.9004096
효림초등학교,초등학교,부산광역시 사하구 장림동 394,부산광역시 사하구 장평로 106,35.07537995,128.9741021
삼동초등학교,초등학교,경상남도 남해군 삼동면 동천리 1104-2,경상남도 남해군 삼동면 동부대로 1296,34.80824552,128.0357654
포항원동초등학교,초등학교,경상북도 포항시 남구 오천읍 원리 978,경상북도 포항시 남구 오천읍 냉천로340번길 64,35.96542504,129.401098
방림초등학교,초등학교,강원특별자치도 평창군 방림면 방림리 1344,강원특별자치도 평창군 방림면 방림1길 9,37.42747954,128.3921733
푸른꿈고등학교,고등학교,전북특별자치도 무주군 안성면 진도리 865,전북특별자치도 무주군 안성면 진성로 2312-9,35.86433064,127.6186346
율정초등학교,초등학교,경기도 양주시 옥정동 1028,경기도 양주시 옥정동로 245-41,37.8280661,127.0960906
풍기북부초등학교,초등학교,경상북도 영주시 풍기읍 교촌리 104-1,경상북도 영주시 풍기읍 금계로 72,36.87949336,128.5256436
구천초등학교,초등학교,경상북도 의성군 구천면 유산리 507,경상북도 의성군 구천면 소보안계로 1616,36.35003075,128.4315478
대암초등학교,초등학교,경상남도 창원시 성산구 대방동 372,경상남도 창원시 성산구 창이대로899번길 23,35.20586609,128.7094383
봉곡초등학교,초등학교,경상남도 진주시 봉곡동 465-1,경상남도 진주시 북장대로36번길 8,35.19410351,128.0757823
양감중학교,중학교,경기도 화성시 양감면 신왕리 475-1,경기도 화성시 양감면 초록로 49,37.08148848,126.951662
신안흑산중학교,중학교,전라남도 신안군 흑산면 진리 26,전라남도 신안군 흑산면 흑산일주로 124,34.68286744,125.4327867
순천팔마고등학교,고등학교,전라남도 순천시 용당동 263-2,전라남도 순천시 삼산로 140,34.9747943,127.4979343
상평초등학교오색분교장,초등학교,강원특별자치도 양양군 서면 오색리 307-1,강원특별자치도 양양군 서면 설악로 1173,38.07434202,128.4792502
진안중학교,중학교,전북특별자치도 진안군 진안읍 군상리 1053-4,전북특별자치도 진안군 진안읍 상역로 86,35.80074338,127.4183991
백운고등학교,고등학교,경기도 의왕시 내손동 665-5,경기도 의왕시 내손순환로 136,37.38788839,126.9866943
현산초등학교현산남분교장,초등학교,전라남도 해남군 현산면 구산리 404-1,전라남도 해남군 현산면 입제길 40,34.42855255,126.5851432
수북초등학교,초등학교,전라남도 담양군 수북면 수북리 161,전라남도 담양군 수북면 추성1로 714,35.30120545,126.9301515
호반초등학교,초등학교,강원특별자치도 춘천시 후평동 15,강원특별자치도 춘천시 후만로126번길 35,37.87432976,127.7609773
동삭초등학교,초등학교,경기도 평택시 동삭동 332-7,경기도 평택시 동삭로 370,37.0186092,127.0968585
지촌초등학교지암분교장,초등학교,강원특별자치도 춘천시 사북면 지암리 308,강원특별자치도 춘천시 사북면 화악지암길 431,37.98121081,127.6070879
괴산고등학교,고등학교,충청북도 괴산군 괴산읍 대사리 201,충청북도 괴산군 괴산읍 읍내로 106,36.79657848,127.7796338
대방중학교,중학교,경상남도 창원시 성산구 대방동 360,경상남도 창원시 성산구 가양로 133,35.21041285,128.7062908
학봉초등학교,초등학교,충청남도 공주시 반포면 학봉리 290,충청남도 공주시 반포면 동학사1로 141-10,36.36079324,127.2527900074
장흥용산중학교,중학교,전라남도 장흥군 용산면 인암리 789-7,전라남도 장흥군 용산면 용안로 13,34.61668729,126.9139463
서울답십리초등학교,초등학교,서울특별시 동대문구 답십리동 274,서울특별시 동대문구 전농로3길 23,37.56880432,127.055427
송석초등학교,초등학교,충청남도 서천군 마서면 송석리 49-1,충청남도 서천군 마서면 송신로 432,36.07302865,126.6439086
약산고등학교,고등학교,전라남도 완도군 약산면 장용리 850,전라남도 완도군 약산면 약산로 366,34.39213844,126.8996588
용이초등학교,초등학교,경기도 평택시 용이동 482,경기도 평택시 현신7길 36,37.00008904,127.1467153
백운초등학교,초등학교,부산광역시 남구 용호동 713-2,부산광역시 남구 동명로 76,35.11830866,129.1055296
부산동여자중학교,중학교,부산광역시 동구 수정동 599-42,부산광역시 동구 망양로773번길 28,35.13304126,129.0411164
화암중학교,중학교,울산광역시 동구 방어동 1109,울산광역시 동구 문현5길 35,35.4880068,129.4118422
인동초등학교,초등학교,경상북도 구미시 인의동 389-2,경상북도 구미시 여헌로3길 34,36.10688422,128.4220825
대전대신고등학교,고등학교,대전광역시 서구 복수동 283-63,대전광역시 서구 오량1길 98,36.30895881,127.3800491
거제제일중학교,중학교,경상남도 거제시 거제면 서정리 695-1,경상남도 거제시 거제면 읍내로13길 12,34.85086877,128.5864541
다문초등학교,초등학교,경기도 양평군 용문면 다문리 626,경기도 양평군 용문면 다문중앙2길 27,37.48585466,127.5915311
서울역삼초등학교,초등학교,서울특별시 강남구 역삼동 833-7,서울특별시 강남구 강남대로66길 21,37.49316528,127.0326527
광주도평초등학교,초등학교,경기도 광주시 초월읍 도평리 219-10,경기도 광주시 초월읍 현산로 89-16,37.39642361,127.2893901
한울고등학교,고등학교,전라남도 곡성군 목사동면 평리 337,전라남도 곡성군 목사동면 주목로 713,35.11735857,127.2980952
홍익대학교사범대학부속고등학교,고등학교,서울특별시 성북구 성북동 151,서울특별시 성북구 성북로14가길 23,37.59366662,127.002805
우곡중학교,중학교,경상북도 고령군 우곡면 월오리 414,경상북도 고령군 우곡면 우곡로 492-19,35.64486899,128.3560352
문흥초등학교,초등학교,광주광역시 북구 문흥동 787-3,광주광역시 북구 면앙로 19,35.18106097,126.9143537
압구정고등학교,고등학교,서울특별시 강남구 압구정동 470,서울특별시 강남구 압구정로39길 20,37.53113395,127.0327116
부산여자고등학교,고등학교,부산광역시 사하구 하단동 산24,부산광역시 사하구 낙동대로520번길 36,35.11150068,128.9674864
구암중학교,중학교,서울특별시 관악구 봉천동 1712-5,서울특별시 관악구 성현로 53,37.49277532,126.948602
인천아라중학교,중학교,인천광역시 서구 당하동 산 41-1,인천광역시 서구 서로2로 50,37.5859775,126.7037957
신수중학교,중학교,서울특별시 마포구 신수동 371-1,서울특별시 마포구 신수로 49,37.545923,126.934132
언주중학교,중학교,서울특별시 강남구 삼성동 28,서울특별시 강남구 선릉로116길 57,37.51465316,127.0466832
인천부흥초등학교,초등학교,인천광역시 부평구 부평동 171,인천광역시 부평구 부흥로366번길 34,37.49625571,126.7311865
삼기초등학교,초등학교,전북특별자치도 익산시 삼기면 간촌리 43-2,전북특별자치도 익산시 삼기면 황금로 523,36.02006653,126.9854993
서상중학교,중학교,경상남도 함양군 서상면 도천리 1047-6,경상남도 함양군 서상면 서상로 232-1,35.67710456,127.6896788
일광중학교,중학교,부산광역시 기장군 일광면 삼성리 749,부산광역시 기장군 일광읍 해빛3로 99,35.26522711,129.2204614
장전중학교,중학교,부산광역시 금정구 장전동 521-183,부산광역시 금정구 금샘로18번길 39,35.22878812,129.0779437
여량중학교,중학교,강원특별자치도 정선군 여량면 여량리 87,강원특별자치도 정선군 여량면 여량7길 42,37.46878049,128.7263062
공검초등학교,초등학교,경상북도 상주시 공검면 부곡리 9-1,경상북도 상주시 공검면 공검이안길 27,36.51514991,128.1544734
서울방학초등학교,초등학교,서울특별시 도봉구 방학동 302,서울특별시 도봉구 도당로9길 34,37.66393373,127.032748
보성중학교,중학교,전라남도 보성군 보성읍 옥평리 805,전라남도 보성군 보성읍 신지두슬길 9,34.76481313,127.0909425
서평초등학교,초등학교,경기도 수원시 권선구 서둔동 294-3,경기도 수원시 권선구 수인로9번길 52,37.26867712,126.9970853
검단초등학교,초등학교,경기도 성남시 중원구 하대원동 123,경기도 성남시 중원구 원터로 25,37.42948258,127.144034
서울배봉초등학교,초등학교,서울특별시 동대문구 전농동 3-111,서울특별시 동대문구 사가정로 193,37.58008416,127.0668719
계양중학교,중학교,인천광역시 계양구 귤현동 430,인천광역시 계양구 장제로1181번길 9,37.5689105,126.7382324
상명중학교,중학교,서울특별시 노원구 중계동 515,서울특별시 노원구 덕릉로 553,37.64954781,127.0680416
서울창일초등학교,초등학교,서울특별시 도봉구 창동 371,서울특별시 도봉구 노해로66길 84,37.64765764,127.0476085
서울동구로초등학교,초등학교,서울특별시 구로구 구로동 93,서울특별시 구로구 구로중앙로14길 43,37.49407053,126.8927802
개군중학교,중학교,경기도 양평군 개군면 부리 453-1,경기도 양평군 개군면 추읍로 15,37.42858075,127.5397798
탑동초등학교,초등학교,경기도 수원시 권선구 탑동 755,경기도 수원시 권선구 탑동로 55,37.27351524,126.9728696
경기고등학교,고등학교,서울특별시 강남구 삼성동 74-4,서울특별시 강남구 영동대로 643,37.51756454,127.0560755
고창중학교,중학교,전북특별자치도 고창군 고창읍 덕산리 248,전북특별자치도 고창군 고창읍 보릿골로 35,35.42860953,126.6937513
문장초등학교,초등학교,경상북도 구미시 도량동 801,경상북도 구미시 고아읍 문장로 168,36.14857959,128.3327624
외동중학교,중학교,경상북도 경주시 외동읍 입실리 443-1,경상북도 경주시 외동읍 입실로1길 80-9,35.71736873,129.3253571
대구논공초등학교,초등학교,대구광역시 달성군 논공읍 남리 328,대구광역시 달성군 논공읍 논공로7길 41,35.73107603,128.4376482
칠보초등학교,초등학교,경기도 수원시 권선구 금곡동 245-2,경기도 수원시 권선구 금호로37번길 15,37.26986181,126.9553744
거제여자중학교,중학교,부산광역시 연제구 거제동 1278-2,부산광역시 연제구 금용로 43,35.187762,129.0634379
중동고등학교,고등학교,서울특별시 강남구 일원동 618,서울특별시 강남구 일원로 7,37.49371459,127.0809122
전남기술과학고등학교,고등학교,전라남도 화순군 화순읍 신기리 60,전라남도 화순군 화순읍 만연로 160-25,35.07198494,126.9919092
마령고등학교,고등학교,전북특별자치도 진안군 마령면 평지리 583-1,전북특별자치도 진안군 마령면 임진로 2076,35.7322463,127.3721322
이리동남초등학교,초등학교,전북특별자치도 익산시 동산동 140-1,전북특별자치도 익산시 동천로7길 18,35.93132058,126.9707108
청호초등학교,초등학교,강원특별자치도 속초시 청호동 432-38,강원특별자치도 속초시 청호로 60,38.19625118,128.5983368
매원중학교,중학교,경기도 수원시 영통구 매탄동 812,경기도 수원시 영통구 매탄로 177,37.26661639,127.0452492
적상중학교,중학교,전북특별자치도 무주군 적상면 사산리 1210-1,전북특별자치도 무주군 적상면 여용로 269,35.93509921,127.6565828
동수원초등학교,초등학교,경기도 수원시 영통구 매탄동 898,경기도 수원시 영통구 인계로189번길 83,37.26956799,127.0405268
장성하이텍고등학교,고등학교,전라남도 장성군 장성읍 영천리 615,전라남도 장성군 장성읍 단풍로 72,35.30771586,126.7932086
장성여자중학교,중학교,전라남도 장성군 장성읍 영천리 891,전라남도 장성군 장성읍 제봉로 60,35.29766188,126.7868137
신창초등학교,초등학교,제주특별자치도 제주시 한경면 신창리 422,제주특별자치도 제주시 한경면 두신로 72,33.34898229,126.1851933
백암고등학교,고등학교,경기도 용인시 처인구 백암면 근창리 166,경기도 용인시 처인구 백암면 백원로 519-9,37.164968,127.3685728
광수중학교,중학교,경기도 광주시 퇴촌면 도수리 585,경기도 광주시 퇴촌면 도수길23번길 23,37.47365896,127.3198075
철원초등학교,초등학교,강원특별자치도 철원군 철원읍 화지리 66,강원특별자치도 철원군 철원읍 금학로 297-18,38.21350087,127.2111787
반여고등학교,고등학교,부산광역시 해운대구 반여동 1622,부산광역시 해운대구 반여로 136,35.20295915,129.1265612
태원고등학교,고등학교,경기도 성남시 분당구 야탑동 754-1,경기도 성남시 분당구 성남대로 822,37.40391632,127.1290213
일월초등학교,초등학교,경기도 수원시 권선구 구운동 891,경기도 수원시 권선구 일월천로16번길 27,37.28421904,126.9743928
백현중학교,중학교,경기도 성남시 분당구 정자동 77,경기도 성남시 분당구 황새울로 124,37.37132024,127.1106623
효정중학교,중학교,울산광역시 북구 양정동 222,울산광역시 북구 염포로 363,35.55923755,129.3787986
수원고등학교,고등학교,경기도 수원시 팔달구 매교동 283-29,경기도 수원시 팔달구 정조로 666-10,37.26713365,127.0174147
서울남사초등학교,초등학교,서울특별시 동작구 사당동 1011-1,서울특별시 동작구 동작대로13길 22,37.48194349,126.9782341
김천신일초등학교,초등학교,경상북도 김천시 신음동 506-2,경상북도 김천시 신음3길 42,36.14368748,128.1210968
탄벌중학교,중학교,경기도 광주시 탄벌동 72-3,경기도 광주시 포돌이로 77,37.41306261,127.2438458
종암중학교,중학교,서울특별시 성북구 종암동 32-3,서울특별시 성북구 종암로5길 80-17,37.593111,127.0319913
재송여자중학교,중학교,부산광역시 해운대구 재송동 1157,부산광역시 해운대구 재반로84번길 148,35.18984281,129.1310174
강진대구중학교,중학교,전라남도 강진군 대구면 수동리 649-1,전라남도 강진군 대구면 청자로 1887,34.49283075,126.8000594
효자초등학교,초등학교,경상북도 포항시 남구 효자동 595-11,경상북도 포항시 남구 효성로 30,36.00614007,129.3371372
칠보초등학교,초등학교,전북특별자치도 정읍시 칠보면 무성리 25-1,전북특별자치도 정읍시 칠보면 칠보중앙로 130,35.60649429,126.9899785
서울성산초등학교,초등학교,서울특별시 마포구 합정동 427-2,서울특별시 마포구 양화로3길 94,37.55342789,126.9109504
구만초등학교,초등학교,경상남도 고성군 구만면 효락리 621-2,경상남도 고성군 구만면 영회로 1763,35.08851455,128.335541
산마루초등학교,초등학교,경기도 구리시 갈매동 산74,경기도 구리시 갈매순환로 133,37.63163747,127.1201526
함열여자고등학교,고등학교,전북특별자치도 익산시 함열읍 남당리 586,전북특별자치도 익산시 익산대로 1852,36.08295724,126.9690849
서울미성초등학교,초등학교,서울특별시 관악구 신림동 768-23,서울특별시 관악구 문성로 79,37.47833997,126.9123923
오산초등학교,초등학교,충청남도 서산시 오남동 305-6,충청남도 서산시 덕지천로 436,36.74557169,126.4823893
내토초등학교,초등학교,충청북도 제천시 신백동 132,충청북도 제천시 관전로 99,37.13423175,128.2285838
화도중학교,중학교,경기도 화성시 마도면 석교리 212,경기도 화성시 마도면 석교로 162,37.20499973,126.7752047
부평고등학교,고등학교,인천광역시 부평구 부평동 375-33,인천광역시 부평구 부흥북로 43,37.50227408,126.7276188
단원중학교,중학교,경기도 안산시 단원구 고잔동 431-4,경기도 안산시 단원구 단원로 27,37.32794999,126.822711
대감초등학교,초등학교,경상남도 김해시 대동면 대감리 805-1,경상남도 김해시 대동면 대동로 993,35.27358181,128.9811349
대구반송초등학교,초등학교,대구광역시 달성군 옥포읍 반송리 151,대구광역시 달성군 옥포읍 용연사길 5,35.75661793,128.4946927
향산초등학교,초등학교,경기도 김포시 고촌읍 향산리 29-4,경기도 김포시 고촌읍 상미1로 26,37.61950876,126.749325
목포대성초등학교,초등학교,전라남도 목포시 대성동 212,전라남도 목포시 청호로 79,34.79969623,126.3797871
서곡초등학교,초등학교,강원특별자치도 원주시 판부면 서곡리 1110,강원특별자치도 원주시 판부면 용수골길 159,37.29832271,127.9390294
웅남중학교,중학교,경상남도 창원시 성산구 상남동 53,경상남도 창원시 성산구 단정로98번길 8,35.21622905,128.6889637
매괴여자중학교,중학교,충청북도 음성군 감곡면 왕장리 510-1,충청북도 음성군 감곡면 매괴길 10,37.12067594,127.6406558
광무여자중학교,중학교,부산광역시 부산진구 개금동 55,부산광역시 부산진구 백양관문로 31,35.16205208,129.0297927
금일중학교생일분교장,중학교,전라남도 완도군 생일면 유서리 626,전라남도 완도군 생일면 생일로 613번길,34.33481853,126.9902696
강서고등학교,고등학교,서울특별시 양천구 목동 735,서울특별시 양천구 목동중앙남로 27,37.53631557,126.8657711
자양고등학교,고등학교,서울특별시 광진구 자양동 524-11,서울특별시 광진구 뚝섬로37길 28,37.53607797,127.0733395
진보고등학교,고등학교,경상북도 청송군 진보면 진안리 492,경상북도 청송군 진보면 진성로 25,36.53283897,129.0414201
무녀도초등학교,초등학교,전북특별자치도 군산시 옥도면 무녀도리 223-1,전북특별자치도 군산시 옥도면 무녀도2길 33,35.80466804,126.4237472
불정초등학교,초등학교,경기도 성남시 분당구 정자동 203,경기도 성남시 분당구 돌마로 250,37.36125574,127.1194969
군포양정초등학교,초등학교,경기도 군포시 금정동 850-1,경기도 군포시 오금로 131,37.35930627,126.9406945
중앙대학교사범대학부속중학교,중학교,서울특별시 동작구 흑석동 86,서울특별시 동작구 서달로 124,37.50362942,126.9617326
대미초등학교,초등학교,충청북도 충주시 동량면 대전리 1518,충청북도 충주시 동량면 대미길 62,37.03388364,127.929558
월천초등학교,초등학교,경상남도 거창군 거창읍 서변리 609,경상남도 거창군 거창읍 주곡로 207,35.71382296,127.9169681
오송초등학교,초등학교,충청북도 청주시 흥덕구 오송읍 오송리 60-1,충청북도 청주시 흥덕구 오송읍 오송2길 26,36.61216789,127.3262195
내덕중학교,중학교,경상남도 김해시 내덕동 224-1,경상남도 김해시 내덕로 80,35.20681475,128.8173423
대불초등학교,초등학교,전라남도 영암군 삼호읍 용앙리 1665-5,전라남도 영암군 삼호읍 대불주거6로 41,34.75709137,126.4606424
경기스마트고등학교,고등학교,경기도 시흥시 정왕동 1522,경기도 시흥시 정왕천로 404,37.34323883,126.7523469
부곡중학교,중학교,경상남도 창녕군 부곡면 부곡리 115,경상남도 창녕군 부곡면 부곡로 101-32,35.43758068,128.6076948
현매초등학교,초등학교,경기도 안성시 서운면 현매리 193,경기도 안성시 서운면 매향길 61,36.93595743,127.2300443
노화북초등학교,초등학교,전라남도 완도군 노화읍 신양리 452-1,전라남도 완도군 노화읍 신목길 102,34.2162396,126.5776793
김해삼계중학교,중학교,경상남도 김해시 삼계동 1425,경상남도 김해시 가야로38번길 40,35.26651465,128.8642383
범계초등학교,초등학교,경기도 안양시 동안구 호계동 1052-1,경기도 안양시 동안구 동안로 90,37.38751871,126.9537811
한빛고등학교,고등학교,전라남도 담양군 대전면 행성리 11,전라남도 담양군 대전면 추성1로 501-21,35.29153056,126.9131364
대호중학교,중학교,경기도 오산시 궐동 617,경기도 오산시 궐리사로29번길 19,37.16220081,127.0568708
서울수유초등학교,초등학교,서울특별시 강북구 수유동 55-5,서울특별시 강북구 삼양로74길 39,37.63124966,127.0202924
광주자연과학고등학교,고등학교,광주광역시 북구 오치동 5,광주광역시 북구 능안로 30,35.19084274,126.9154959
부산공업고등학교,고등학교,부산광역시 남구 대연동 918-1,부산광역시 남구 수영로196번길 80,35.13016741,129.0876872
농암초등학교청화분교장,초등학교,경상북도 문경시 농암면 화산리 930-2,경상북도 문경시 농암면 중리길 1-5,36.57315586,127.9873795
곡성고등학교,고등학교,전라남도 곡성군 곡성읍 읍내리 446-1,전라남도 곡성군 곡성읍 학교로 119,35.28511237,127.2923427
양양초등학교,초등학교,강원특별자치도 양양군 양양읍 구교리 20,강원특별자치도 양양군 양양읍 군청길 39,38.07732034,128.6217432
행당중학교,중학교,서울특별시 성동구 행당동 66-3,서울특별시 성동구 왕십리로 189,37.55455404,127.0419634
학다리중앙초등학교,초등학교,전라남도 함평군 학교면 학교리 585,전라남도 함평군 학교면 백학길 100,35.01411894,126.5365035
마산중앙고등학교,고등학교,경상남도 창원시 마산합포구 신월동 33-60,경상남도 창원시 마산합포구 고운로 103,35.19192849,128.5584266
회진초등학교,초등학교,전라남도 장흥군 회진면 회진리 738-2,전라남도 장흥군 회진면 회진남구길 7,34.47994076,126.9356843
서울도신초등학교,초등학교,서울특별시 영등포구 대림동 741-3,서울특별시 영등포구 도림로53길 32-9,37.49926789,126.9007141
초강초등학교,초등학교,충청북도 영동군 심천면 초강리 456-4,충청북도 영동군 심천면 초강로 97,36.21677234,127.7138238
논산여자상업고등학교,고등학교,충청남도 논산시 강산동 53-1,충청남도 논산시 시민로 197,36.18482148,127.095938
진교고등학교,고등학교,경상남도 하동군 진교면 진교리 550,경상남도 하동군 진교면 민다리길 179,35.03579647,127.8977639
매괴고등학교,고등학교,충청북도 음성군 감곡면 왕장리 498-1,충청북도 음성군 감곡면 매괴길 10,37.12067594,127.6406222
의성여자고등학교,고등학교,경상북도 의성군 의성읍 후죽리 415-1,경상북도 의성군 의성읍 북원3길 35,36.36119866,128.6969518
토월초등학교,초등학교,경기도 용인시 수지구 풍덕천동 698-1,경기도 용인시 수지구 수지로296번길 3,37.32522741,127.0915836
태장중학교,중학교,경기도 수원시 영통구 영통동 970-1,경기도 수원시 영통구 봉영로1517번길 45,37.24899233,127.0651888
동주초등학교,초등학교,부산광역시 사상구 주례동 531,부산광역시 사상구 가야대로306번길 72,35.14713448,129.0055597
부산진초등학교,초등학교,부산광역시 부산진구 범천동 890-1,부산광역시 부산진구 범천로 30,35.149993,129.056265
하의고등학교,고등학교,전라남도 신안군 하의면 웅곡리 220,전라남도 신안군 하의면 곰실길 11-8,34.60603857,126.0371142
수원농생명과학고등학교,고등학교,경기도 수원시 장안구 영화동 109,경기도 수원시 장안구 광교산로 13,37.29515359,127.0194502
녹양중학교,중학교,경기도 의정부시 녹양동 191-5,경기도 의정부시 체육로 187,37.7618639,127.0280838
암태중학교,중학교,전라남도 신안군 암태면 단고리 104,전라남도 신안군 암태면 장단고길 10,34.8298859,126.1127155
한일여자고등학교,고등학교,경상북도 김천시 교동 527-1,경상북도 김천시 한일길 11-30,36.1377533,128.0958438
신암중학교,중학교,충청남도 예산군 신암면 오산리 1-4,충청남도 예산군 신암면 신암남로 413,36.74013029,126.812764
성호초등학교,초등학교,경기도 오산시 오산동 862-1,경기도 오산시 성호새싹길 8,37.15047668,127.0709442
금호여자중학교,중학교,경상북도 영천시 금호읍 대미리 930-23,경상북도 영천시 금호읍 성천앞길 112-53,35.93987039,128.8782664
장성초등학교,초등학교,강원특별자치도 태백시 장성동 187-1,강원특별자치도 태백시 보드미길 26,37.10267933,129.0057684
광양다압중학교,중학교,전라남도 광양시 다압면 도사리 854-5,전라남도 광양시 다압면 섬진강매화로,35.08400382,127.7072485
보평고등학교,고등학교,경기도 성남시 분당구 백현동 544,경기도 성남시 분당구 동판교로 124,37.39419168,127.1176047
대소중학교,중학교,충청북도 음성군 대소면 삼정리 613-7,충청북도 음성군 대소면 대동로869번길 15,36.9626896,127.4898499
남한산초등학교,초등학교,경기도 광주시 남한산성면 산성리 373,경기도 광주시 남한산성면 남한산성로 770,37.47862091,127.1860783
교암초등학교,초등학교,전북특별자치도 정읍시 교암동 323-3,전북특별자치도 정읍시 정읍사로 179,35.52603685,126.8457849
태전초등학교,초등학교,경기도 광주시 태전동 241-1,경기도 광주시 태봉로 56,37.38885946,127.2271184
서울은천초등학교,초등학교,서울특별시 관악구 봉천동 622-1,서울특별시 관악구 은천로 69,37.4865852,126.9426791
정산초등학교,초등학교,충청남도 청양군 정산면 서정리 34,충청남도 청양군 정산면 칠갑산로 1863,36.41592486,126.9463888
인천단봉초등학교,초등학교,인천광역시 서구 오류동 1720-1,인천광역시 서구 단봉로 122,37.59843764,126.6377448
대전관평초등학교,초등학교,대전광역시 유성구 관평동 900,대전광역시 유성구 테크노4로 132,36.424095,127.3871878
판동초등학교,초등학교,충청북도 보은군 삼승면 내망리 536-1,충청북도 보은군 삼승면 삼승탄부로 78-15,36.39861225,127.7413857
강북중학교,중학교,서울특별시 강북구 수유동 694,서울특별시 강북구 한천로150길 67,37.6449159,127.0253734
감일초등학교,초등학교,경기도 하남시 감이동 291-15,경기도 하남시 감일백제로 45,37.50023416,127.1620609
석천초등학교,초등학교,경기도 화성시 우정읍 석천리 52-3,경기도 화성시 우정읍 석천길 52,37.05515175,126.7887413
한국경마축산고등학교,고등학교,전북특별자치도 남원시 운봉읍 준향리 477-1,전북특별자치도 남원시 운봉읍 황산로 952,35.4408014,127.5161913
부산관광고등학교,고등학교,부산광역시 서구 남부민동 611-236,부산광역시 서구 천마로 52,35.08250055,129.0222269
입면초등학교,초등학교,전라남도 곡성군 입면 송전리 573,전라남도 곡성군 입면 송전로 27,35.30660498,127.1852577
서울세륜초등학교,초등학교,서울특별시 송파구 방이동 89-23,서울특별시 송파구 양재대로 1264,37.51855781,127.1341633
군서초등학교,초등학교,전라남도 영광군 군서면 남죽리 658,전라남도 영광군 군서면 군서로 50,35.25713697,126.4781573
전주초포초등학교,초등학교,전북특별자치도 전주시 덕진구 호성동2가 835,전북특별자치도 전주시 덕진구 초포로 171,35.87717541,127.1397004
칠보중학교,중학교,경기도 수원시 권선구 금곡동 1093,경기도 수원시 권선구 금곡로 126,37.27362167,126.9444852
서울수송초등학교,초등학교,서울특별시 강북구 번동 456,서울특별시 강북구 한천로124길 14,37.63732397,127.0332067
대진전자통신고등학교,고등학교,부산광역시 금정구 장전동 657-13,부산광역시 금정구 수림로 92,35.24150549,129.0818052
무등초등학교,초등학교,광주광역시 북구 우산동 615,광주광역시 북구 면앙로 99,35.17879259,126.9227691
동학중학교,중학교,경기도 화성시 반월동 184-8,경기도 화성시 영통로27번길 60,37.23298711,127.0581592
창덕여자고등학교,고등학교,서울특별시 송파구 방이동 89-6,서울특별시 송파구 양재대로 1240,37.51624351,127.1402736
시종초등학교,초등학교,전라남도 영암군 시종면 내동리 10-2,전라남도 영암군 시종면 내동중앙로 17,34.86770683,126.6074631
관곡초등학교,초등학교,경기도 용인시 기흥구 구갈동 363,경기도 용인시 기흥구 관곡로 61,37.28322495,127.1137416
남성현초등학교,초등학교,경상북도 청도군 화양읍 삼신리 257,경상북도 청도군 화양읍 남성현로 473-11,35.69646032,128.7163815
인천영선고등학교,고등학교,인천광역시 부평구 삼산동 448-5,인천광역시 부평구 체육관로 179,37.51594529,126.743904
효덕초등학교,초등학교,경기도 평택시 고덕면 방축리 643-1,경기도 평택시 고덕면 효덕새싹길 6-5,37.01670942,127.0355926
덕암초등학교,초등학교,충청남도 공주시 유구읍 덕곡리 3-11,충청남도 공주시 유구읍 금계산로 943,36.63032479,126.970008
고령초등학교,초등학교,경상북도 고령군 대가야읍 연조리 151,경상북도 고령군 왕정길 10,35.7343807,128.2695344
광주산수초등학교,초등학교,광주광역시 동구 산수동 552-18,광주광역시 동구 산수길 28,35.15584046,126.9283371
대아초등학교,초등학교,경기도 양평군 양서면 증동리 573,경기도 양평군 양서면 방죽들길 5,37.52789082,127.4156006
현동중학교,중학교,경상북도 청송군 현동면 도평리 733-7,경상북도 청송군 현동면 청송로 2686,36.2893639,129.0212193
주월초등학교,초등학교,광주광역시 서구 화정동 1325,광주광역시 서구 화운로 36,35.144705,126.8837427
유림초등학교,초등학교,경상북도 경주시 황성동 539-1,경상북도 경주시 용담로104번길 43-4,35.86872219,129.2128593
안산고등학교,고등학교,경기도 안산시 상록구 장상동 10-3,경기도 안산시 상록구 청룡4길 8,37.36050434,126.8736141
남양초등학교,초등학교,경기도 화성시 남양읍 남양리 650-1,경기도 화성시 남양읍 남양시장로55번길 7,37.21038035,126.8155734
서경초등학교,초등학교,충청북도 청주시 흥덕구 가경동 1584,충청북도 청주시 흥덕구 서경로 19,36.61831066,127.4417903
양운고등학교,고등학교,부산광역시 해운대구 좌동 1395,부산광역시 해운대구 양운로 176,35.17786581,129.1705491
야탑고등학교,고등학교,경기도 성남시 분당구 야탑동 145-3,경기도 성남시 분당구 판교로 738,37.40376833,127.1535645
밀양여자고등학교,고등학교,경상남도 밀양시 내일동 326,경상남도 밀양시 내일중앙길 10,35.49521193,128.7559345
달전초등학교,초등학교,경상북도 포항시 북구 흥해읍 이인리 286,경상북도 포항시 북구 흥해읍 달전로 215,36.06349578,129.3346892
마산서중학교,중학교,경상남도 창원시 마산합포구 월영동 534-20,경상남도 창원시 마산합포구 월영남로 6,35.17852774,128.5573056
경안중학교,중학교,경기도 광주시 장지동 61-20,경기도 광주시 장지1길 6,37.39510409,127.2469066
상원중학교,중학교,대구광역시 달서구 상인동 1518,대구광역시 달서구 상인로 117,35.81681713,128.5441712
서촌초등학교,초등학교,경기도 시흥시 정왕동 1848-1,경기도 시흥시 정왕대로118번길 27,37.34942585,126.7275021
장성백암중학교,중학교,전라남도 장성군 북이면 사거리 75-1,전라남도 장성군 북이면 복룡길 33,35.43153799,126.8160403
외도초등학교,초등학교,제주특별자치도 제주시 외도이동 235-1,제주특별자치도 제주시 일주서로 7368,33.49246577,126.4346988
경기과학고등학교,고등학교,경기도 수원시 장안구 송죽동 68-23,경기도 수원시 장안구 수일로 135,37.308815,127.0064083
삼향동초등학교,초등학교,전라남도 무안군 삼향읍 맥포리 62,전라남도 무안군 삼향읍 극포길 25,34.83797038,126.4777745
마산여자중학교,중학교,경상남도 창원시 마산회원구 회원동 639-1,경상남도 창원시 마산회원구 무학로 587,35.22131965,128.5610829
안골포초등학교,초등학교,경상남도 창원시 진해구 청안동 475,경상남도 창원시 진해구 안청북로 30,35.10398498,128.8062297
중앙대학교사범대학부속고등학교,고등학교,서울특별시 강남구 도곡동 산21,서울특별시 강남구 선릉로 207,37.4919059,127.0521116
대덕중학교,중학교,대전광역시 유성구 가정동 38,대전광역시 유성구 대덕대로 515,36.37946132,127.3775175
장명초등학교,초등학교,경기도 화성시 장안면 장안리 152,경기도 화성시 장안면 장명길 19-8,37.05658023,126.8521592
서면초등학교,초등학교,충청남도 서천군 서면 신합리 466-1,충청남도 서천군 서면 선합장길 15,36.15384185,126.5555658
이리신동초등학교,초등학교,전북특별자치도 익산시 신동 626-2,전북특별자치도 익산시 무왕로 981,35.96164474,126.9672193
주학초등학교,초등학교,부산광역시 사상구 주례동 84-192,부산광역시 사상구 가야대로366번길 120,35.14606624,129.0121591
서울용두초등학교,초등학교,서울특별시 동대문구 용두동 237-1,서울특별시 동대문구 천호대로13길 43,37.57641309,127.0283872
인천신촌초등학교,초등학교,인천광역시 부평구 십정동 186-346,인천광역시 부평구 경원대로 1215,37.48675419,126.7067291
통영고등학교,고등학교,경상남도 통영시 봉평동 130,경상남도 통영시 도남로 116,34.82954734,128.416198
휘봉고등학교,고등학교,서울특별시 동대문구 휘경동 43-138,서울특별시 동대문구 한천로 290,37.58647725,127.068852
서울난우초등학교,초등학교,서울특별시 관악구 신림동 589-1,서울특별시 관악구 난우길 40,37.47711829,126.9176525
정미초등학교,초등학교,충청남도 당진시 정미면 매방리 115-6,충청남도 당진시 정미면 운정로 642,36.85615745,126.5541835
남부민초등학교,초등학교,부산광역시 서구 남부민동 76,부산광역시 서구 천마로 153,35.08941857,129.0233325
해강초등학교,초등학교,부산광역시 해운대구 우동 1388,부산광역시 해운대구 해운대해변로 73,35.16215501,129.1417212
서울정릉초등학교,초등학교,서울특별시 성북구 정릉동 798-1,서울특별시 성북구 솔샘로25가길 8,37.61979605,127.0052561
안산진흥초등학교,초등학교,경기도 안산시 단원구 고잔동 712-1,경기도 안산시 단원구 화정천동로 80,37.31248107,126.8223093
세화고등학교,고등학교,제주특별자치도 제주시 구좌읍 세화리 73,제주특별자치도 제주시 구좌읍 세종로 26,33.51619733,126.862739
영신여자고등학교,고등학교,서울특별시 노원구 중계동 118,서울특별시 노원구 중계로16나길 13,37.65245208,127.0832893
강당초등학교,초등학교,충청남도 서산시 부석면 강당리 510,충청남도 서산시 부석면 인정로 183,36.66171742,126.4017836
인천만수초등학교,초등학교,인천광역시 남동구 만수동 1074,인천광역시 남동구 소래로 652,37.44730181,126.7347827
한국K-POP고등학교,고등학교,충청남도 홍성군 광천읍 신진리 367,충청남도 홍성군 광천읍 광천로373번길 14,36.50793192,126.6219135
서울대동초등학교,초등학교,서울특별시 영등포구 대림동 702,서울특별시 영등포구 대림로21길 6,37.49370503,126.9001194
덕천중학교,중학교,부산광역시 북구 덕천동 320-1,부산광역시 북구 만덕대로65번길 50,35.21423402,129.0118134
향남초등학교,초등학교,경기도 화성시 향남읍 백토리 553,경기도 화성시 향남읍 왜골길 7,37.1196974,126.9429182
목포한빛초등학교,초등학교,전라남도 목포시 상동 887,전라남도 목포시 교육로66번길 22,34.80359383,126.4223053
녹전중학교,중학교,강원특별자치도 영월군 산솔면 녹전리 802-1,강원특별자치도 영월군 산솔면 산솔시장길 3-1,37.14409576,128.6774889
사상초등학교,초등학교,부산광역시 사상구 덕포동 692-1,부산광역시 사상구 운산로 65,35.16761073,128.9828439
광양중앙초등학교,초등학교,전라남도 광양시 중동 1347-1,전라남도 광양시 불무길 15,34.94565129,127.6938054
성동초등학교,초등학교,충청남도 논산시 성동면 삼산리 108,충청남도 논산시 성동면 성동로240번길 30,36.19961753,127.0334077
대구초등학교,초등학교,전라남도 강진군 대구면 수동리 785,전라남도 강진군 대구면 청자로 1888,34.49270374,126.7978166
이리영등중학교,중학교,전북특별자치도 익산시 어양동 622-1,전북특별자치도 익산시 하나로 490,35.96463999,126.9814661
선인중학교,중학교,인천광역시 미추홀구 도화동 193-6,인천광역시 미추홀구 석정로 165,37.47099649,126.6548626
장성황룡중학교,중학교,전라남도 장성군 황룡면 장산리 402,전라남도 장성군 황룡면 홍길동로 50,35.29756778,126.7590536
함창고등학교,고등학교,경상북도 상주시 함창읍 구향리 181,경상북도 상주시 함창읍 함창중앙로 85,36.56784154,128.1739661
목포이로초등학교,초등학교,전라남도 목포시 용해동 240-2,전라남도 목포시 이로로9번길 3,34.80511875,126.4068368
서울원명초등학교,초등학교,서울특별시 서초구 서초동 1685-1,서울특별시 서초구 고무래로 90-6,37.50079587,127.0167076
영광옥광중학교,중학교,전라남도 영광군 영광읍 무령리 317-1,전라남도 영광군 영광읍 물무로3길 19,35.27881594,126.516119
양산초등학교,초등학교,경기도 오산시 양산동 667-3,경기도 오산시 양산로 448,37.19721014,127.0321505
계성중학교,중학교,대구광역시 중구 대신동 277-1,대구광역시 중구 달성로 35,35.8679358,128.5802499
부원여자중학교,중학교,인천광역시 부평구 부평동 70-128,인천광역시 부평구 부영로 88,37.49329275,126.7170969
양서초등학교,초등학교,경기도 양평군 양서면 도곡리 320-1,경기도 양평군 양서면 양서도곡길 8,37.51289742,127.3822247
파천초등학교,초등학교,경상북도 청송군 파천면 관리 785-1,경상북도 청송군 파천면 안파로 1357,36.44516556,129.0317869
경기자동차과학고등학교,고등학교,경기도 시흥시 무지내동 341-2,경기도 시흥시 금오로 103,37.41429863,126.8398538
옹동초등학교,초등학교,전북특별자치도 정읍시 옹동면 칠석리 239,전북특별자치도 정읍시 옹동면 칠석1길 29-7,35.64728052,126.9763458
영남중학교,중학교,대구광역시 달서구 상인동 70,대구광역시 달서구 월곡로 300,35.82076999,128.5363043
황성초등학교,초등학교,경상북도 경주시 동천동 695-6,경상북도 경주시 양정로287번길 12,35.85939912,129.2233132
대구장동초등학교,초등학교,대구광역시 달서구 장기동 533-4,대구광역시 달서구 달구벌대로304길 112,35.84478484,128.5317635
서울버들초등학교,초등학교,서울특별시 송파구 잠실동 35-6,서울특별시 송파구 석촌호수로 81,37.51028143,127.0889992
다사중학교,중학교,대구광역시 달성군 다사읍 매곡리 729,대구광역시 달성군 다사읍 매곡로2길 8-5,35.86255586,128.4555466
신지동초등학교,초등학교,전라남도 완도군 신지면 신상리 211,전라남도 완도군 신지면 신지로 815-1,34.32717979,126.8506172
삼계초등학교,초등학교,경상남도 김해시 삼계동 1424,경상남도 김해시 가야로38번길 30,35.267561,128.8638478
오천고등학교,고등학교,경상북도 포항시 남구 오천읍 용덕리 267,경상북도 포항시 남구 오천읍 해병로 293,35.96902488,129.4127932
귀일중학교,중학교,제주특별자치도 제주시 애월읍 하귀2리 1276,제주특별자치도 제주시 애월읍 항몽로 44,33.47900072,126.4052261
원천초등학교,초등학교,강원특별자치도 화천군 하남면 원천리 440,강원특별자치도 화천군 하남면 원천새싹길 16,38.05970511,127.6665764
해보초등학교,초등학교,전라남도 함평군 해보면 금덕리 477,전라남도 함평군 해보면 해삼로 313,35.17740361,126.6034646
시화나래중학교,중학교,경기도 시흥시 정왕동,경기도 시흥시 거북섬남로 70,37.32465657,126.6785656
공주대학교사범대학부설중학교,중학교,충청남도 공주시 반죽동 322-1,충청남도 공주시 봉황로 75,36.45276665,127.1197907
영광홍농중학교,중학교,전라남도 영광군 홍농읍 상하리 345,전라남도 영광군 홍농읍 상하길 109,35.40177292,126.4471607
인주초등학교,초등학교,충청남도 아산시 인주면 신성리 220,충청남도 아산시 인주면 서해로 486,36.87620339,126.896343
오갑초등학교,초등학교,충청북도 음성군 감곡면 오궁리 2-1,충청북도 음성군 감곡면 가곡로 326-7,37.11234437,127.6771702
양성중학교,중학교,경기도 안성시 양성면 동항리 415,경기도 안성시 양성면 양성로 51,37.06313048,127.1958085
성동글로벌경영고등학교,고등학교,서울특별시 중구 신당동 250-3,서울특별시 중구 퇴계로 375,37.56585472,127.0135246
오동초등학교,초등학교,강원특별자치도 춘천시 신북읍 발산리 473-2,강원특별자치도 춘천시 신북읍 장본길 74,37.95184042,127.758004
구례동중학교,중학교,전라남도 구례군 토지면 파도리 25,전라남도 구례군 토지면 섬진강대로 4856-10,35.19251032,127.5459373
복내초등학교,초등학교,전라남도 보성군 복내면 복내리 322,전라남도 보성군 복내면 원봉길 5,34.89871886,127.1282108
왕신여자중학교,중학교,전북특별자치도 정읍시 신태인읍 신태인리 86-2,전북특별자치도 정읍시 신태인읍 정신로 1094,35.68287964,126.8894006
보라중학교,중학교,경기도 용인시 기흥구 보라동 614,경기도 용인시 기흥구 한보라1로 63,37.24950722,127.1082152
서산초등학교,초등학교,충청남도 서산시 동문동 966,충청남도 서산시 중앙로 38-1,36.78007112,126.4553808
서울당중초등학교,초등학교,서울특별시 영등포구 양평동3가 42,서울특별시 영등포구 선유로 131,37.52628923,126.8894135
양덕초등학교,초등학교,경상남도 창원시 마산회원구 양덕동 42,경상남도 창원시 마산회원구 양덕동12길 86,35.23385991,128.5885008
목동고등학교,고등학교,서울특별시 양천구 신정동 325-8,서울특별시 양천구 목동동로2길 68,37.50921598,126.860143
신봉고등학교,고등학교,경기도 용인시 수지구 신봉동 979,경기도 용인시 수지구 신봉3로 45,37.32774897,127.0629561
충남중학교,중학교,대전광역시 동구 신흥동 168,대전광역시 동구 계족로 123,36.32568497,127.443513
서울도림초등학교,초등학교,서울특별시 영등포구 신길동 285-1,서울특별시 영등포구 가마산로65길 22,37.50750302,126.9072907
본오초등학교,초등학교,경기도 안산시 상록구 본오동 821,경기도 안산시 상록구 각골서로 49,37.29486464,126.867939
목포신흥초등학교,초등학교,전라남도 목포시 상동 1017,전라남도 목포시 교육로 10,34.79940669,126.4246583
신봉중학교,중학교,경기도 용인시 수지구 신봉동 981,경기도 용인시 수지구 신봉3로 43,37.32765873,127.0643074
인천발산초등학교,초등학교,인천광역시 서구 당하동 1038-1,인천광역시 서구 고산후로78번길 6,37.59011616,126.6991478
수원매화초등학교,초등학교,경기도 수원시 영통구 매탄동 157,경기도 수원시 영통구 권광로304번길 47-17,37.27457739,127.0406845
여수문수중학교,중학교,전라남도 여수시 문수동 171,전라남도 여수시 여문2로 141,34.75395513,127.6999662
서울전곡초등학교,초등학교,서울특별시 동대문구 전농동 188,서울특별시 동대문구 전농로 172,37.58070429,127.0560124
충주남산초등학교,초등학교,충청북도 충주시 용산동 2109,충청북도 충주시 거룡2길 31,36.96126707,127.9368349
인천삼목초등학교장봉분교장,초등학교,인천광역시 옹진군 북도면 장봉리 1050,인천광역시 옹진군 북도면 장봉로 553,37.5339125,126.3376011
양남중학교,중학교,경상북도 경주시 양남면 하서리 651,경상북도 경주시 양남면 양남로 325-3,35.67412465,129.4607583
경산과학고등학교,고등학교,경상북도 경산시 갑제동 440-6,경상북도 경산시 화랑로 66,35.82202009,128.7688881
실내초등학교,초등학교,강원특별자치도 화천군 사내면 명월리 270,강원특별자치도 화천군 사내면 실내길 26,38.12010974,127.5317739
인천대정초등학교,초등학교,인천광역시 부평구 산곡동 311-150,인천광역시 부평구 안남로 115,37.4932149,126.7098548
명석고등학교,고등학교,대전광역시 동구 가양동 116,대전광역시 동구 우암로 380,36.35298746,127.4542462
고경초등학교,초등학교,경상북도 영천시 고경면 상덕리 345,경상북도 영천시 고경면 호국로 1276,36.00316189,129.0683103
해평중학교,중학교,경상북도 구미시 해평면 월호리 488,경상북도 구미시 해평면 강동로 1654,36.19960113,128.3922014
서울숭곡초등학교,초등학교,서울특별시 성북구 하월곡동 84-86,서울특별시 성북구 종암로40길 30,37.60840947,127.0328151
영안중학교,중학교,경상북도 영천시 북안면 임포리 311,경상북도 영천시 북안면 운북로 2025,35.91800235,129.0076986
소라초등학교소라남분교장,초등학교,전라남도 여수시 소라면 현천리 606,전라남도 여수시 소라면 중촌1길 11,34.76131964,127.6080119
인천뷰티예술고등학교,고등학교,인천광역시 연수구 동춘동 932-3,인천광역시 연수구 원인재로 21,37.40393222,126.6713019
원평초등학교,초등학교,경상남도 통영시 용남면 원평리 157,경상남도 통영시 용남면 적촌길 203,34.89474931,128.4585749
한국항만물류고등학교,고등학교,전라남도 광양시 진상면 섬거리 557-38,전라남도 광양시 진상면 신시길 177,35.01702381,127.7165243
대구월배초등학교,초등학교,대구광역시 달서구 진천동 57-1,대구광역시 달서구 월배로 131,35.81642856,128.528311
대일외국어고등학교,고등학교,서울특별시 성북구 정릉동 산16-36,서울특별시 성북구 서경로 116,37.61330459,127.014176
불국중학교,중학교,경상북도 경주시 시래동 206,경상북도 경주시 구매2길 35-12,35.77393121,129.309127
김해부곡초등학교,초등학교,경상남도 김해시 부곡동 800-4,경상남도 김해시 월산로 139,35.20639506,128.8000454
충무초등학교,초등학교,경상남도 통영시 정량동 232,경상남도 통영시 비석2길 24,34.84838052,128.4303429
길주초등학교,초등학교,경상북도 안동시 용상동 1527-4,경상북도 안동시 경동로 947-20,36.55560202,128.7604284
초월중학교,중학교,경기도 광주시 초월읍 쌍동리 149-1,경기도 광주시 초월읍 도곡길21번길 28,37.36712661,127.3031765
화북초등학교입석분교장,초등학교,경상북도 상주시 화북면 입석리 550,경상북도 상주시 화북면 문장로 2645,36.6380326,127.8861412
서울관광고등학교,고등학교,서울특별시 관악구 봉천동 1694,서울특별시 관악구 은천로15길 25,37.48781542,126.9437608
수정초등학교,초등학교,충청북도 보은군 속리산면 사내리 180,충청북도 보은군 속리산면 사내1길 125,36.53624179,127.8214248
풍광초등학교,초등학교,충청북도 청주시 흥덕구 가경동 1172,충청북도 청주시 흥덕구 풍산로47번길 58,36.62986002,127.4352559
고창남중학교,중학교,전북특별자치도 고창군 성송면 향산리 79-1,전북특별자치도 고창군 성송면 대성로 877,35.37394733,126.6483359
창원신월고등학교,고등학교,경상남도 창원시 의창구 신월동 76-1,경상남도 창원시 성산구 신월로 66,35.22636486,128.6937473
금오고등학교,고등학교,경상북도 구미시 광평동 299-3,경상북도 구미시 박정희로25길 15,36.10894994,128.3556319
강서공업고등학교,고등학교,서울특별시 강서구 방화동 834,서울특별시 강서구 방화대로47길 9,37.57603409,126.8161817
김천예술고등학교,고등학교,경상북도 김천시 교동 527-1,경상북도 김천시 한일길 11-30,36.13774035,128.0958438
무선중학교,중학교,전라남도 여수시 화장동 848,전라남도 여수시 대통1길 29,34.77716348,127.6411765
창원여자고등학교,고등학교,경상남도 창원시 성산구 중앙동 116,경상남도 창원시 성산구 두대로 153,35.22788956,128.6612262
서울삼선초등학교,초등학교,서울특별시 성북구 삼선동3가 30-4,서울특별시 성북구 보문로29길 106,37.58714152,127.0126718
거창여자고등학교,고등학교,경상남도 거창군 거창읍 중앙리 445,경상남도 거창군 거창읍 죽전1길 72,35.69274942,127.9088876
구미고등학교,고등학교,경상북도 구미시 도량동 600,경상북도 구미시 문장로 42,36.13777736,128.3327162
창천초등학교,초등학교,제주특별자치도 서귀포시 안덕면 창천리 473,제주특별자치도 서귀포시 안덕면 창천중앙로 12,33.2634386,126.3696474
쌍림중학교,중학교,경상북도 고령군 쌍림면 귀원리 25,경상북도 고령군 쌍림면 대가야로 659,35.68462812,128.2431018
늘봄초등학교,초등학교,세종특별자치시 도담동 688,세종특별자치시 다솜1로 183,36.51436121,127.2551313
해제남초등학교,초등학교,전라남도 무안군 해제면 천장리 658,전라남도 무안군 해제면 돌기길 5,35.08244622,126.2955578
백구초등학교,초등학교,전북특별자치도 김제시 백구면 석담리 424,전북특별자치도 김제시 백구면 석담2길 36,35.88643131,126.9702089
수원중학교,중학교,경기도 수원시 팔달구 매교동 251,경기도 수원시 팔달구 정조로 666-10,37.26713365,127.0174147
모락초등학교,초등학교,경기도 의왕시 오전동 235,경기도 의왕시 보식골로 40,37.35869385,126.9734963
모전초등학교,초등학교,경상북도 문경시 모전동 674-1,경상북도 문경시 매봉로 75,36.59189499,128.180954
도암초등학교,초등학교,전라남도 강진군 도암면 석문리 242,전라남도 강진군 도암면 봉황로 10,34.55138705,126.7255067
파장초등학교,초등학교,경기도 수원시 장안구 파장동 574,경기도 수원시 장안구 경수대로1081번길 32-9,37.30896098,126.9923556
임학중학교,중학교,인천광역시 계양구 병방동 432-2,인천광역시 계양구 장제로 894,37.54602183,126.7402436
서울금동초등학교,초등학교,서울특별시 금천구 시흥동 1013-1,서울특별시 금천구 금하로30길 53,37.44773848,126.9163989
세도초등학교,초등학교,충청남도 부여군 세도면 청송리 466-3,충청남도 부여군 세도면 세도로 68,36.17568091,126.9467526
비산중학교,중학교,경기도 안양시 동안구 비산동 121-1,경기도 안양시 동안구 평촌대로427번길 42,37.40942621,126.948075
황등남초등학교,초등학교,전북특별자치도 익산시 황등면 황등리 963-3,전북특별자치도 익산시 황등면 황등서로 44,36.0033501,126.9387491
대송중학교,중학교,울산광역시 동구 화정동 143-1,울산광역시 동구 학문로 90,35.50452893,129.4196102
대경중학교,중학교,서울특별시 중구 신당동 333-579,서울특별시 중구 매봉18길 111,37.55637326,127.0169792
백록초등학교,초등학교,제주특별자치도 제주시 노형동 2583-2,제주특별자치도 제주시 정존5길 62,33.48710078,126.4702267
백제중학교,중학교,충청남도 부여군 규암면 반산리 276,충청남도 부여군 규암면 흥수로 759,36.27251325,126.8652629
앙성중학교,중학교,충청북도 충주시 앙성면 용포리 172,충청북도 충주시 앙성면 앙암로 66,37.11388959,127.7506559
줄포초등학교,초등학교,전북특별자치도 부안군 줄포면 줄포리 200,전북특별자치도 부안군 줄포면 줄포초교길 16,35.59193076,126.6809229
솔밭중학교,중학교,충청북도 청주시 흥덕구 복대동 515-6,충청북도 청주시 흥덕구 진재로103번길 15,36.64021621,127.4291300109
대연고등학교,고등학교,부산광역시 남구 대연동 670-4,부산광역시 남구 조각공원로 20,35.12879874,129.1019811
이백초등학교,초등학교,전북특별자치도 남원시 이백면 평촌리 104,전북특별자치도 남원시 이백면 평촌길 30,35.42974152,127.4612147
명인중학교,중학교,경상북도 성주군 선남면 도성리 1111-1,경상북도 성주군 선남면 도성2길 4,35.88583823,128.3642206
추풍령중학교,중학교,충청북도 영동군 추풍령면 추풍령리 63-1,충청북도 영동군 추풍령면 신안로 106,36.21774616,128.0027118
숙지초등학교,초등학교,경기도 수원시 팔달구 화서동 651,경기도 수원시 팔달구 덕영대로735번길 23-1,37.28323146,126.9917106
봉계초등학교,초등학교,경상북도 김천시 봉산면 신리 472,경상북도 김천시 봉산면 봉계길 74-15,36.14384665,128.0641047
남정중학교,중학교,경상북도 영덕군 남정면 장사리 410-1,경상북도 영덕군 남정면 진불길 11-27,36.28382203,129.3702125
가은중학교,중학교,경상북도 문경시 가은읍 왕능리 218,경상북도 문경시 가은읍 가은로 205,36.64547535,128.0711654
경북생활과학고등학교,고등학교,경상북도 구미시 해평면 월호리 488,경상북도 구미시 해평면 강동로 1654,36.19960113,128.3922014
대전신흥초등학교,초등학교,대전광역시 동구 신흥동 150-3,대전광역시 동구 동대전로46번길 76,36.32606492,127.4404883
반포고등학교,고등학교,서울특별시 서초구 반포동 30-19,서울특별시 서초구 고무래로 71,37.50270273,127.0165603
만안초등학교,초등학교,경기도 안양시 만안구 안양동 848-1,경기도 안양시 만안구 안양로384번길 13,37.40664496,126.9167372
서원고등학교,고등학교,충청북도 청주시 흥덕구 가경동 1580,충청북도 청주시 흥덕구 가경로 49,36.62008178,127.4410388
인천소방고등학교,고등학교,인천광역시 미추홀구 도화동 193-6,인천광역시 미추홀구 석정로 165,37.47099649,126.6548626
능주초등학교,초등학교,전라남도 화순군 능주면 잠정리 333,전라남도 화순군 능주면 학샘길 12,34.98816675,126.9562754
미사강변중학교,중학교,경기도 하남시 선동 420,경기도 하남시 미사강변한강로 89,37.57788767,127.1856213
감천초등학교,초등학교,부산광역시 사하구 감천동 212,부산광역시 사하구 원양로 368-2,35.08257424,129.0071932
광주체육중학교,중학교,광주광역시 북구 운암동 184,광주광역시 북구 하서로 55,35.18250305,126.8794162
비금동초등학교,초등학교,전라남도 신안군 비금면 용소리 238-2,전라남도 신안군 비금면 용소길 181-6,34.78465103,125.9798266
통영초등학교,초등학교,경상남도 통영시 무전동 1054-3,경상남도 통영시 무전3길 57,34.86305562,128.4250064
동방초등학교,초등학교,경상북도 경주시 동방동 151,경상북도 경주시 산업로 3485-8,35.80363889,129.2619004
각화초등학교,초등학교,광주광역시 북구 각화동 215,광주광역시 북구 각화대로39번길 10,35.18242651,126.9357419
충렬여자중학교,중학교,경상남도 통영시 용남면 장평리 203-1,경상남도 통영시 용남면 견내량로 70,34.88688775,128.4650492
신백초등학교,초등학교,충청북도 제천시 신백동 212-7,충청북도 제천시 관전로1길 28,37.12852468,128.2267634
인천축현초등학교,초등학교,인천광역시 연수구 옥련동 405-5,인천광역시 연수구 청량로 176,37.42252517,126.6542596
경민비즈니스고등학교,고등학교,경기도 의정부시 가능동 562-6,경기도 의정부시 서부로 545,37.74612458,127.0251316
대구달산초등학교,초등학교,대구광역시 북구 침산동 402,대구광역시 북구 옥산로17길 37,35.88770026,128.5851901
서울신우초등학교,초등학교,서울특별시 관악구 신림동 315,서울특별시 관악구 호암로 498,37.46326397,126.9325353
한동초등학교,초등학교,제주특별자치도 제주시 구좌읍 한동리 1168,제주특별자치도 제주시 구좌읍 일주동로 2831,33.53912963,126.8290084
소하고등학교,고등학교,경기도 광명시 소하동 1330,경기도 광명시 소하일로 21,37.44724606,126.8875821
아산세교초등학교,초등학교,충청남도 아산시 배방읍 세교리 1530,충청남도 아산시 배방읍 동방로 200,36.77796558,127.0922356
인천경서초등학교,초등학교,인천광역시 서구 경서동 741,인천광역시 서구 경서로31번길 31,37.55666143,126.650985
한마음초등학교,초등학교,경기도 화성시 능동 1117,경기도 화성시 동탄숲속로 69-6,37.20859344,127.0563591
군산신풍초등학교,초등학교,전북특별자치도 군산시 나운동 835-1,전북특별자치도 군산시 하나운3길 7,35.96377098,126.6957922
마산의신여자중학교,중학교,경상남도 창원시 마산합포구 교방동 207,경상남도 창원시 마산합포구 천하장사로 21,35.211608,128.5660041
범서초등학교,초등학교,울산광역시 울주군 범서읍 천상리 346,울산광역시 울주군 범서읍 천상1길 7,35.56462175,129.2307174
삼봉초등학교난지분교장,초등학교,충청남도 당진시 석문면 난지도리 138-1,충청남도 당진시 석문면 난지1길 155,37.04854328,126.4333797
순심고등학교,고등학교,경상북도 칠곡군 왜관읍 왜관리 340,경상북도 칠곡군 왜관읍 평장2길 6,35.9864732,128.4032262
살레시오초등학교,초등학교,광주광역시 서구 매월동 525-3,광주광역시 서구 전평길 40-1,35.11849619,126.8504587
서울신묵초등학교,초등학교,서울특별시 중랑구 묵동 246-12,서울특별시 중랑구 동일로149길 46,37.60652285,127.0758358
전주완산서초등학교,초등학교,전북특별자치도 전주시 완산구 효자동1가 138-1,전북특별자치도 전주시 완산구 안행로 127,35.8067646,127.1336242
신라중학교,중학교,경상북도 경주시 황성동 1053-18,경상북도 경주시 알천북로 143,35.85465841,129.2164259
북대구초등학교,초등학교,대구광역시 북구 산격동 420,대구광역시 북구 동북로37길 68,35.90328492,128.6095212
옥천초등학교,초등학교,경기도 양평군 옥천면 옥천리 549-1,경기도 양평군 옥천면 옥천길 51,37.5195581,127.4593942
조성남초등학교,초등학교,전라남도 보성군 조성면 덕산리 36,전라남도 보성군 조성면 산정길 2,34.7899804,127.215023
녹동초등학교,초등학교,전라남도 고흥군 도양읍 봉암리 1553-1,전라남도 고흥군 도양읍 천마로 83,34.52957742,127.1398098
제주중앙초등학교,초등학교,제주특별자치도 제주시 삼도일동 503,제주특별자치도 제주시 서사로18길 40,33.50258332,126.5150136
화창초등학교,초등학교,경기도 안양시 만안구 석수동 348-7,경기도 안양시 만안구 양화로 217,37.41212653,126.9035094
명인고등학교,고등학교,경상북도 성주군 선남면 도성리 1105-2,경상북도 성주군 선남면 도성2길 4,35.88583823,128.3642206
인천소양초등학교,초등학교,인천광역시 계양구 박촌동 71-2,인천광역시 계양구 박촌로 53,37.55625874,126.7425332
삼계부사관고등학교,고등학교,전라남도 장성군 삼계면 사창리 339,전라남도 장성군 삼계면 사창로 47,35.2584815,126.6654827
서울영희초등학교,초등학교,서울특별시 강남구 일원동 617,서울특별시 강남구 일원로 21,37.4923004,127.0811328
삼호중앙초등학교,초등학교,전라남도 영암군 삼호읍 용앙리 280,전라남도 영암군 삼호읍 중앙촌길 35,34.74745202,126.4700099
와부중학교,중학교,경기도 남양주시 와부읍 덕소리 75-4,경기도 남양주시 와부읍 월문천로 65,37.58703422,127.219809
소안초등학교,초등학교,전라남도 완도군 소안면 비자리 940,전라남도 완도군 소안면 소안로 213,34.17255622,126.6542943
목포미항초등학교,초등학교,전라남도 목포시 옥암동 1102,전라남도 목포시 미항로 211,34.80130085,126.4393875
명곡초등학교,초등학교,경상남도 창원시 의창구 명서동 117,경상남도 창원시 의창구 우곡로159번길 22-11,35.24293744,128.6448386
서울봉래초등학교,초등학교,서울특별시 중구 만리동2가 2,서울특별시 중구 손기정로 73,37.55641234,126.9652506
송수초등학교,초등학교,부산광역시 해운대구 재송동 935-1,부산광역시 해운대구 해운대로76번길 35,35.189884,129.1192592
화령초등학교,초등학교,경상북도 상주시 화서면 신봉리 184,경상북도 상주시 화서면 화령로 57,36.4466099,127.951894
대전가오중학교,중학교,대전광역시 동구 가오동 171-6,대전광역시 동구 은어송로 79,36.30867355,127.457144
청도초등학교,초등학교,경상북도 청도군 화양읍 범곡리 495,경상북도 청도군 화양읍 청화로 38-10,35.64768689,128.7305707
동부초등학교,초등학교,울산광역시 동구 동부동 676,울산광역시 동구 남목13길 23,35.54490419,129.4272227
대덕초등학교,초등학교,전라남도 장흥군 대덕읍 연정리 390-1,전라남도 장흥군 대덕읍 대대로 947,34.50028653,126.8891773
인천석남서초등학교,초등학교,인천광역시 서구 석남동 580,인천광역시 서구 건지로249번길 6,37.50014147,126.6703935
청운중학교,중학교,충청북도 청주시 상당구 영운동 73-48,충청북도 청주시 상당구 영운천로 69,36.61888194,127.5053758
전주지곡초등학교,초등학교,전북특별자치도 전주시 완산구 평화동2가 897-3,전북특별자치도 전주시 완산구 평화로 85,35.78433159,127.1329066
담주초등학교,초등학교,전라남도 담양군 담양읍 강쟁리 118,전라남도 담양군 담양읍 신성길 26,35.30066059,126.9761908
송암초등학교,초등학교,충청남도 태안군 태안읍 송암리 765-1,충청남도 태안군 태안읍 순환길 130,36.7356117,126.3003085
포항영신고등학교,고등학교,경상북도 포항시 북구 우현동 산63-9,경상북도 포항시 북구 소티재로 107,36.05945253,129.351381
충화초등학교,초등학교,충청남도 부여군 충화면 천당리 463-1,충청남도 부여군 충화면 팔충로 701,36.1832831,126.8142654
중동초등학교,초등학교,경상남도 창원시 의창구 서상동 657,경상남도 창원시 의창구 의창대로238번길 14,35.25948046,128.6234138
임피초등학교,초등학교,전북특별자치도 군산시 임피면 읍내리 536,전북특별자치도 군산시 임피면 동헌길 38,35.98780018,126.8499764
신양초등학교,초등학교,충청남도 예산군 신양면 신양리 346-3,충청남도 예산군 신양면 청신로 374,36.60229518,126.8691805
별내초등학교,초등학교,경기도 남양주시 별내면 청학리 408-2,경기도 남양주시 별내면 청학로92번길 38,37.71140812,127.1183712
가원중학교,중학교,서울특별시 송파구 가락동 106-3,서울특별시 송파구 중대로10길 40-18,37.49099949,127.1231711
용산초등학교,초등학교,부산광역시 남구 용호동 382-1,부산광역시 남구 동명로 176번길 55,35.11653695,129.1160682
흥무초등학교,초등학교,경상북도 경주시 성건동 486,경상북도 경주시 금성로347번길 30,35.84977628,129.2041594
금옥여자고등학교,고등학교,서울특별시 양천구 신정동 729,서울특별시 양천구 신정로 213,37.51096532,126.8439717
양천고등학교,고등학교,서울특별시 양천구 신정동 856-5,서울특별시 양천구 신정로14길 13,37.5083206,126.8452028
나주공업고등학교,고등학교,전라남도 나주시 대호동 874,전라남도 나주시 건재로 43,35.03980492,126.7127511
오창중학교,중학교,충청북도 청주시 청원구 오창읍 창리 151-4,충청북도 청주시 청원구 오창읍 팔결로 619,36.73519455,127.4613997
갈담초등학교,초등학교,경기도 화성시 봉담읍 유리 86,경기도 화성시 봉담읍 갈담초교길 24,37.17514004,126.932909
대구칠성초등학교,초등학교,대구광역시 북구 침산동 211,대구광역시 북구 침산남로32길 17,35.88703348,128.5932407
우석중학교,중학교,강원특별자치도 춘천시 석사동 723,강원특별자치도 춘천시 우석로101번길 17,37.86636438,127.7552511
영통초등학교,초등학교,경기도 수원시 영통구 영통동 963-3,경기도 수원시 영통구 영통로 328,37.25451415,127.0644383
가평초등학교,초등학교,부산광역시 부산진구 가야동 649-19,부산광역시 부산진구 가야대로482번길 87,35.14885285,129.0257667
승지초등학교,초등학교,경기도 시흥시 능곡동 550,경기도 시흥시 승지로 110,37.37238591,126.8127399
양북중학교,중학교,경상북도 경주시 양북면 어일리 701,경상북도 경주시 문무대왕면 어일남길 2,35.78544291,129.4435608
목포혜인여자중학교,중학교,전라남도 목포시 죽교동 30,전라남도 목포시 죽선로 39-2,34.79998068,126.372628
신남중학교,중학교,서울특별시 양천구 신월동 610-3,서울특별시 양천구 중앙로29길 109,37.52077389,126.8478926
동해초등학교,초등학교,강원특별자치도 동해시 용정동 475-3,강원특별자치도 동해시 봉오주택길 22,37.51222384,129.1197999743
문산동중학교,중학교,경기도 파주시 문산읍 문산리 95-9,경기도 파주시 문산읍 독산로31번길 39,37.85922282,126.7806655
갈뫼초등학교,초등학교,경기도 의왕시 내손동 780,경기도 의왕시 갈미로 27,37.37679311,126.9722114
남명초등학교,초등학교,부산광역시 강서구 명지동 3243-2,부산광역시 강서구 명지오션시티11로 132,35.08403561,128.9105908
안룡초등학교,초등학교,경기도 수원시 권선구 곡반정동 606,경기도 수원시 권선구 곡반정로33번길 21,37.23332545,127.0247048
삼기초등학교,초등학교,전라남도 곡성군 삼기면 원등리 832,전라남도 곡성군 삼기면 곡순로 1462,35.2367768,127.2092089
송화초등학교,초등학교,경기도 화성시 병점동 465-5,경기도 화성시 병점중앙로35번길 42,37.20184656,127.0396665
염산초등학교,초등학교,전라남도 영광군 염산면 봉남리 195,전라남도 영광군 염산면 칠산로 124,35.22093525,126.3665496
동부초등학교,초등학교,경상남도 창원시 진해구 석동 169-3,경상남도 창원시 진해구 석동로 27,35.15575164,128.7023746
은척중학교,중학교,경상북도 상주시 은척면 우기리 500,경상북도 상주시 은척면 우기1길 10,36.53817356,128.0626337
동이초등학교,초등학교,충청북도 옥천군 동이면 평산리 72-1,충청북도 옥천군 동이면 평산길 6,36.28644506,127.6191717
중평중학교,중학교,서울특별시 노원구 하계동 271-2,서울특별시 노원구 동일로203길 87,37.63697638,127.0623933
도동초등학교,초등학교,경상남도 진주시 하대동 343-3,경상남도 진주시 대신로 324,35.19015527,128.1176781
시화나래초등학교,초등학교,경기도 시흥시 정왕동,경기도 시흥시 거북섬남로 70,37.32465657,126.6785656
청담고등학교,고등학교,서울특별시 강남구 압구정동 526,서울특별시 강남구 압구정로 419,37.52800302,127.0437002
영천성남여자고등학교,고등학교,경상북도 영천시 도동 213-1,경상북도 영천시 남촌길 17,35.9492794,128.9317962
사천중학교,중학교,강원특별자치도 강릉시 사천면 석교리 234,강원특별자치도 강릉시 사천면 석교골말길 8,37.82832184,128.8454797
협성고등학교,고등학교,대구광역시 남구 봉덕동 1322-3,대구광역시 남구 효성로 33,35.83479736,128.5985816
일직초등학교,초등학교,경상북도 안동시 일직면 원호리 116,경상북도 안동시 일직면 감시골길 6-3,36.48404728,128.6566145
동성고등공민학교,중학교,경기도 하남시 광암동 323,경기도 하남시 광암로148번길 67,37.51239143,127.1723389
증산초등학교,초등학교,경상북도 김천시 증산면 유성리 276-7,경상북도 김천시 증산면 증산1로 29,35.90227047,128.0357072
소답초등학교,초등학교,경상남도 창원시 의창구 소답동 144-1,경상남도 창원시 의창구 의창대로317번길 41,35.26515855,128.6288761
백운중학교,중학교,충청북도 제천시 백운면 평동리 570,충청북도 제천시 백운면 평동로 67,37.14280559,128.0168918
한재초등학교,초등학교,전라남도 담양군 대전면 대치리 788,전라남도 담양군 대전면 추성1로 217,35.27851184,126.8892583
용인백현초등학교,초등학교,경기도 용인시 기흥구 동백동 600,경기도 용인시 기흥구 동백8로 108,37.28315855,127.1623938
장성고등학교,고등학교,전라남도 장성군 장성읍 영천리 203,전라남도 장성군 장성읍 영천월산길 63,35.30934389,126.7981925
가사초등학교,초등학교,경기도 평택시 현덕면 권관리 2-43,경기도 평택시 현덕면 기산2길 16,36.93849441,126.9171847
대구용계초등학교,초등학교,대구광역시 달성군 가창면 용계리 16,대구광역시 달성군 가창면 가창로221길 1,35.80456757,128.6216025
구즉초등학교,초등학교,대전광역시 유성구 봉산동 796-16,대전광역시 유성구 구룡달전로 34,36.44098571,127.3827598
목포여자상업고등학교,고등학교,전라남도 목포시 상동 525-9,전라남도 목포시 영산로 413-3,34.80841659,126.411971
광도초등학교,초등학교,경상남도 통영시 광도면 노산리 355-1,경상남도 통영시 광도면 노산1길 16,34.90077642,128.4060355
마산초등학교,초등학교,경기도 화성시 송산면 마산리 326-3,경기도 화성시 송산면 송산포도로 582,37.23180131,126.6918993
대구국제고등학교,고등학교,대구광역시 북구 국우동 77-1,대구광역시 북구 도남길 77,35.95549553,128.5815421
오현초등학교,초등학교,경기도 수원시 권선구 오목천동 278,경기도 수원시 권선구 서수원로 220,37.24654131,126.9684672
영신여자고등학교,고등학교,경기도 수원시 권선구 오목천동 537-1,경기도 수원시 권선구 삼천병마로1566번길 30,37.2419379,126.9669823
청아초등학교,초등학교,경기도 하남시 풍산동 561,경기도 하남시 미사강변중앙로132번길 45,37.55870172,127.1941911
이리부천초등학교,초등학교,전북특별자치도 익산시 부송동 1070,전북특별자치도 익산시 부송1로 32,35.95655039,126.9855239
대구만촌초등학교,초등학교,대구광역시 수성구 만촌동 980,대구광역시 수성구 국채보상로214길 33,35.86668961,128.6479227
동주여자고등학교,고등학교,부산광역시 중구 광복동3가 3-1,부산광역시 중구 광복중앙로 18,35.10097077,129.0313539
강경황산초등학교,초등학교,충청남도 논산시 강경읍 황산리 31-2,충청남도 논산시 강경읍 대흥로34번길 5,36.15776647,127.0127505
선일중학교,중학교,경기도 안산시 단원구 선부동 799-5,경기도 안산시 단원구 선부광장서로 59,37.33549008,126.8037698
한울초등학교,초등학교,경기도 화성시 향남읍 행정리 442,경기도 화성시 향남읍 행정중앙1로 25,37.12696147,126.9178538
지명중학교,중학교,전라남도 신안군 지도읍 광정리 1271,전라남도 신안군 지도읍 원광정길 18,35.06113938,126.2139863
동방고등학교,고등학교,대전광역시 서구 관저동 7-1,대전광역시 서구 계백로 1106,36.30033708,127.3462432
완도신지중학교,중학교,전라남도 완도군 신지면 대곡리 781-1,전라남도 완도군 신지면 대곡길 26,34.33712382,126.8285091
한국말산업고등학교,고등학교,전라남도 장흥군 대덕읍 신월리 325,전라남도 장흥군 대덕읍 도청신월로 155,34.49694448,126.8839438
순천부영초등학교,초등학교,전라남도 순천시 연향동 1380,전라남도 순천시 연향중앙상가길 68,34.94685099,127.5199164
김해서중학교,중학교,김해시 주촌면 선지리 1468,경상남도 김해시 주촌면 선지로45번길 24,35.23335181,128.8460221
정관고등학교,고등학교,부산광역시 기장군 정관읍 용수리 1395,부산광역시 기장군 정관읍 정관로 534,35.3220883,129.170237
영흥초등학교,초등학교,인천광역시 옹진군 영흥면 내리 237,인천광역시 옹진군 영흥면 영흥로 440-8,37.25379102,126.4668803
운암고등학교,고등학교,경기도 오산시 원동 815-6,경기도 오산시 운천로 12,37.14383484,127.0750332
숭덕고등학교,고등학교,광주광역시 광산구 월계동 765-7,광주광역시 광산구 월계로 117-8,35.21450644,126.8393251
백영고등학교,고등학교,경기도 안양시 동안구 평촌동 932,경기도 안양시 동안구 관평로 94,37.386458,126.9649474
월계중학교,중학교,서울특별시 노원구 월계동 602-1,서울특별시 노원구 월계로45가길 54,37.63113114,127.0523203
서림초등학교,초등학교,충청남도 서산시 석남동 64-1,충청남도 서산시 덕지천로 104,36.76782027,126.4602697
세류중학교,중학교,경기도 수원시 권선구 세류동 207,경기도 수원시 권선구 덕영대로1031번길 6,37.2576272,127.0070015
용북중학교,중학교,전북특별자치도 남원시 사매면 오신리 387-2,전북특별자치도 남원시 사매면 용북길 89,35.49121972,127.3656473
연곡초등학교,초등학교,강원특별자치도 강릉시 연곡면 동덕리 959,강원특별자치도 강릉시 연곡면 진고개로 2656,37.85709645,128.8292866
푸른중학교,중학교,경기도 화성시 능동 1135,경기도 화성시 동탄공원로 21-24,37.20235319,127.056597
서울홍제초등학교,초등학교,서울특별시 서대문구 홍은동 48-112,서울특별시 서대문구 홍은중앙로 13,37.59350546,126.9454205
용산고등학교,고등학교,서울특별시 용산구 용산동2가 1,서울특별시 용산구 두텁바위로 60,37.54480263,126.981731
인천과학예술영재학교,고등학교,인천광역시 연수구 송도동 115,인천광역시 연수구 아카데미로 192,37.38199933,126.6301396
칠량초등학교,초등학교,전라남도 강진군 칠량면 영동리 1113-5,전라남도 강진군 칠량면 영동1길 5,34.57360504,126.8004306
용문중학교,중학교,부산광역시 남구 용호동 246-1,부산광역시 남구 동명로101번길 93,35.1251995,129.1069007
대구용지초등학교,초등학교,대구광역시 수성구 지산동 1272,대구광역시 수성구 지산로 12,35.82203127,128.6327623
전남여자상업고등학교,고등학교,광주광역시 북구 삼각동 479-1,광주광역시 북구 설죽로 433,35.19911446,126.8956123
오치초등학교,초등학교,광주광역시 북구 오치동 1002,광주광역시 북구 설죽로 290,35.18573678,126.8992800127
대구제일고등학교,고등학교,대구광역시 서구 비산동 228,대구광역시 서구 국채보상로 384,35.8706847,128.5738084
희망대초등학교,초등학교,경기도 성남시 수정구 신흥동 1232,경기도 성남시 수정구 공원로370번길 29,37.44749919,127.1491148
서당초등학교,초등학교,경기도 성남시 분당구 서현동 303,경기도 성남시 분당구 돌마로476번길 30,37.37460238,127.1345888
모덕초등학교,초등학교,부산광역시 사상구 모라동 1364-1,부산광역시 사상구 덕상로 120,35.18270148,128.9919381
서울백산초등학교,초등학교,서울특별시 금천구 시흥동 438-5,서울특별시 금천구 시흥대로38길 78,37.44673975,126.905146
인항고등학교,고등학교,인천광역시 미추홀구 용현동 627-456,인천광역시 미추홀구 매소홀로 135,37.44681429,126.6407082
능주중학교,중학교,전라남도 화순군 능주면 잠정리 106,전라남도 화순군 능주면 죽수길 31-2,34.98516412,126.9590427
도량초등학교,초등학교,경상북도 구미시 도량동 106,경상북도 구미시 송동로7길 15-14,36.14429831,128.3195954
숭실고등학교,고등학교,서울특별시 은평구 신사동 300-88,서울특별시 은평구 은평터널로7길 6,37.59327482,126.9024039
대산초등학교,초등학교,경상남도 창원시 의창구 대산면 가술리 150,경상남도 창원시 의창구 대산면 진산대로 442-7,35.34028326,128.7095142
부석중학교,중학교,경상북도 영주시 부석면 소천리 501-1,경상북도 영주시 부석면 부석로 29,36.97753241,128.6528943
화순이양고등학교,고등학교,전라남도 화순군 이양면 이양리 156-5,전라남도 화순군 이양면 이양로 100-35,34.88670179,126.9920316
서포중학교,중학교,경상북도 포항시 북구 죽장면 입암리 651,경상북도 포항시 북구 죽장면 일광길 2,36.16391663,129.0932289
두암초등학교,초등학교,광주광역시 북구 두암동 400,광주광역시 북구 참판로 130,35.16947738,126.9341202
경희중학교,중학교,서울특별시 동대문구 이문동 1-3,서울특별시 동대문구 경희대로 26,37.59394914,127.054891
미원초등학교금관분교장,초등학교,충청북도 청주시 상당구 미원면 금관리 306-1,충청북도 청주시 상당구 미원면 운암계원로 601,36.62124183,127.7231513
군산동초등학교,초등학교,전북특별자치도 군산시 조촌동 757-1,전북특별자치도 군산시 번영로 181,35.96496069,126.7381229
천곡초등학교,초등학교,울산광역시 북구 천곡동 560-1,울산광역시 북구 천곡길 138,35.63966105,129.3294745
고양중학교,중학교,경기도 고양시 덕양구 삼송동 322,경기도 고양시 덕양구 동세로 82,37.64960904,126.8845811
봉덕초등학교,초등학교,전라남도 여수시 돌산읍 죽포리 1623,전라남도 여수시 돌산읍 죽포1길 21-16,34.64184228,127.7779807
진경여자고등학교,고등학교,전북특별자치도 익산시 황등면 황등리 955,전북특별자치도 익산시 황등면 황등서로 40-92,36.00504357,126.9408324
안산국제비즈니스고등학교,고등학교,경기도 안산시 상록구 장상동 10,경기도 안산시 상록구 수인로 1981,37.36094704,126.8741442
송원고등학교,고등학교,광주광역시 남구 송하동 365-1,광주광역시 남구 송암로 73,35.10818451,126.8732664
별내중학교,중학교,경기도 남양주시 별내면 청학리 421,경기도 남양주시 별내면 청학로132번길 30,37.71101831,127.1127461
신도중학교,중학교,부산광역시 해운대구 좌동 1345,부산광역시 해운대구 좌동순환로 50,35.17058579,129.1674405
노화고등학교,고등학교,전라남도 완도군 노화읍 이포리 255,전라남도 완도군 노화읍 노화로 763-36,34.18136143,126.5776943
세정초등학교,초등학교,경기도 화성시 산척동 408-5,경기도 화성시 동탄순환대로12길 74,37.16678823,127.1260411
이산초등학교,초등학교,경상북도 영주시 이산면 석포리 1036,경상북도 영주시 이산면 이산로 487,36.83011458,128.6818803
상현초등학교,초등학교,경기도 용인시 수지구 상현동 53-3,경기도 용인시 수지구 만현로67번길 23,37.30882494,127.089682
일신여자상업고등학교,고등학교,서울특별시 송파구 송파동 5-14,서울특별시 송파구 송파대로38길 8,37.50179413,127.1142413
대구가창초등학교,초등학교,대구광역시 달성군 가창면 냉천리 815-1,대구광역시 달성군 가창면 가창로 640,35.77105069,128.648247
김해한일여자고등학교,고등학교,경상남도 김해시 안동 333-3,경상남도 김해시 삼안로112번길 1,35.23924195,128.9166756
용안중학교,중학교,전북특별자치도 익산시 용안면 교동리 397-2,전북특별자치도 익산시 용안면 현내1로 71-8,36.11646976,126.9529583
하남풍산초등학교,초등학교,경기도 하남시 덕풍동 730,경기도 하남시 덕풍북로 100,37.5543847,127.2013921
언암초등학교,초등학교,충청남도 서산시 해미면 기지리 1-19,충청남도 서산시 해미면 기지1길 27,36.70829477,126.5114937
한국디지털미디어고등학교,고등학교,경기도 안산시 단원구 와동 산27-1,경기도 안산시 단원구 사세충열로 94,37.3423166,126.8309423
인천하정초등학교,초등학교,인천광역시 부평구 십정동 393,인천광역시 부평구 이규보로 14,37.47526064,126.7007076
내손초등학교,초등학교,경기도 의왕시 내손동 849-1,경기도 의왕시 내손순환로 175,37.38884898,126.9819813
고운고등학교,고등학교,세종특별자치시 고운동 1415,세종특별자치시 마음안로 93,36.51022904,127.2330779
흑산초등학교,초등학교,전라남도 신안군 흑산면 진리 477,전라남도 신안군 흑산면 진마을길 12-13,34.68443825,125.4276444
토월중학교,중학교,경상남도 창원시 의창구 신월동 92,경상남도 창원시 성산구 원이대로 687,35.22366263,128.6888018
백산고등학교,고등학교,전북특별자치도 부안군 백산면 오곡리 547-5,전북특별자치도 부안군 백산면 백산로 379,35.70808449,126.7910026
강동고등학교,고등학교,울산광역시 북구 산하동 산61-11,울산광역시 북구 화암4길 8,35.63246982,129.4351503
옥산초등학교,초등학교,경상북도 경주시 안강읍 옥산리 1116,경상북도 경주시 안강읍 낙헌2길 48,35.9953331,129.169713
전남생명과학고등학교,고등학교,전라남도 강진군 강진읍 교촌리 281,전라남도 강진군 강진읍 교촌길 23,34.64770421,126.7769617
진성중학교,중학교,경상북도 청송군 진보면 이촌리 596,경상북도 청송군 진보면 못안길 33,36.53311296,129.0340548
행정초등학교,초등학교,경기도 화성시 향남읍 행정리 493,경기도 화성시 향남읍 행정중앙1로 77,37.12664265,126.9236168
구갈중학교,중학교,경기도 용인시 기흥구 신갈동 163,경기도 용인시 기흥구 산양로 12,37.28484009,127.1087237
구미여자고등학교,고등학교,경상북도 구미시 도량동 682,경상북도 구미시 문장로 114,36.14446461,128.3316915
군산풍문초등학교,초등학교,전북특별자치도 군산시 장재동 45-19,전북특별자치도 군산시 풍마길 22,35.97727412,126.7187459
연수중학교,중학교,인천광역시 연수구 연수동 579-2,인천광역시 연수구 원인재로 231,37.41679495,126.6864287
사벌초등학교,초등학교,경상북도 상주시 사벌국면 덕담리 396,경상북도 상주시 사벌국면 덕담1길 53,36.46783291,128.2084231
성의여자중학교,중학교,경상북도 김천시 평화동 406-6,경상북도 김천시 평화순환길 250-11,36.11961289,128.1133186
분당경영고등학교,고등학교,경기도 성남시 분당구 금곡동 123,경기도 성남시 분당구 금곡로 289,37.35502581,127.1096108
서울경인초등학교,초등학교,서울특별시 양천구 목동 911-4,서울특별시 양천구 안양천로 1009,37.53287102,126.8856957
작전여자고등학교,고등학교,인천광역시 계양구 작전동 92,인천광역시 계양구 주부토로426번길 15,37.53213347,126.7295556
성호초등학교,초등학교,경상남도 창원시 마산합포구 성호동 57-3,경상남도 창원시 마산합포구 성호동4길 21,35.2092723,128.5713543
한광여자고등학교,고등학교,경기도 평택시 비전동 504,경기도 평택시 중앙1로 115,36.99789035,127.0960037
백봉초등학교,초등학교,충청북도 괴산군 청안면 부흥리 428,충청북도 괴산군 청안면 질마로 1456,36.70684414,127.7267128
대구황금초등학교,초등학교,대구광역시 수성구 황금동 820,대구광역시 수성구 들안로32길 22,35.84422126,128.6183787
괴산오성중학교,중학교,충청북도 괴산군 감물면 오성리 123,충청북도 괴산군 감물면 오창로 56,36.84234624,127.8681398
광양백운초등학교,초등학교,전라남도 광양시 중동 1656,전라남도 광양시 광장로 21,34.93736999,127.6918725
김해대곡중학교,중학교,경상남도 김해시 어방동 651-3,경상남도 김해시 활천로 195-35,35.24356439,128.898515
성주초등학교,초등학교,경상북도 성주군 성주읍 경산리 169-1,경상북도 성주군 성주읍 성주읍4길 9,35.91945837,128.2847469
덕성여자중학교,중학교,서울특별시 종로구 송현동 34,서울특별시 종로구 율곡로3길 49,37.57778598,126.9819235
괘법초등학교,초등학교,부산광역시 사상구 괘법동 556-2,부산광역시 사상구 사상로161번길 8,35.16018215,128.9857978
한국항공고등학교,고등학교,강원특별자치도 태백시 장성동 110-1,강원특별자치도 태백시 평화길 8-24,37.09902067,129.0212841
인천안남초등학교,초등학교,인천광역시 계양구 계산동 34-2,인천광역시 계양구 경명대로1114번길 26,37.5412094,126.7324017
현풍중학교,중학교,대구광역시 달성군 현풍읍 성하리 497,대구광역시 달성군 현풍읍 비슬로 675,35.6985296,128.4382371
포곡고등학교,고등학교,경기도 용인시 처인구 포곡읍 둔전리 88-2,경기도 용인시 처인구 포곡읍 포곡로210번길 26,37.27259121,127.2276557
서울체육고등학교,고등학교,서울특별시 송파구 방이동 88-14,서울특별시 송파구 강동대로 232,37.52233038,127.1298226
서울금옥초등학교,초등학교,서울특별시 성동구 금호동4가 999-4,서울특별시 성동구 독서당로 251,37.54584824,127.0176012
온평초등학교,초등학교,제주특별자치도 서귀포시 성산읍 온평리 1577,제주특별자치도 서귀포시 성산읍 일주동로 4740,33.40844659,126.8972158
구암초등학교,초등학교,경상남도 창원시 마산회원구 구암동 260,경상남도 창원시 마산회원구 구암북19길 153,35.25826967,128.5943421
대구공업고등학교 테크노폴리스 캠퍼스,고등학교,대구광역시 달성군 유가읍 유곡리 978,대구광역시 달성군 유가읍 유가길 46,35.67008799,128.4549742
천천초등학교,초등학교,경기도 수원시 장안구 천천동 512,경기도 수원시 장안구 정자로42번길 17,37.30058446,126.982582
온남초등학교,초등학교,울산광역시 울주군 온양읍 대안리 250,울산광역시 울주군 온양읍 화산발리로 734,35.40595715,129.2886376
심천중학교,중학교,충청북도 영동군 심천면 초강리 378,충청북도 영동군 심천면 초강로 143,36.22008398,127.7135686
관교중학교,중학교,인천광역시 미추홀구 관교동 482,인천광역시 미추홀구 경원대로670번길 19,37.44425703,126.6917774
신창중학교,중학교,제주특별자치도 제주시 한경면 신창리 422,제주특별자치도 제주시 한경면 두신로 72,33.34898229,126.1851933
화원고등학교,고등학교,전라남도 해남군 화원면 신덕리 45,전라남도 해남군 화원면 신평리길 25-19,34.67092845,126.3229609
영운중학교,중학교,경상남도 김해시 삼방동 712,경상남도 김해시 인제로284번길 49,35.25440052,128.9085499
금오중학교,중학교,경기도 의정부시 금오동 341-1,경기도 의정부시 금신로 380,37.7499704,127.0576207
용인신봉초등학교,초등학교,경기도 용인시 수지구 신봉동 952,경기도 용인시 수지구 신봉2로 115,37.32965706,127.068107
신월중학교,중학교,서울특별시 양천구 신월동 17-6,서울특별시 양천구 남부순환로29길 25,37.54046194,126.828389
인천십정초등학교,초등학교,인천광역시 부평구 십정동 298-1,인천광역시 부평구 배곶북로 10-6,37.4742768,126.6982451
어진중학교,중학교,세종특별자치시 어진동 678,세종특별자치시 다솜로 10,36.49820157,127.2548143
충북과학고등학교,고등학교,충청북도 청주시 상당구 가덕면 상야리 산4-23,충청북도 청주시 상당구 가덕면 교육원로 153-135,36.58779121,127.5691772
신천고등학교,고등학교,경기도 시흥시 신천동 534-2,경기도 시흥시 포도원로 50,37.4351037,126.7783978
풍북초등학교,초등학교,경상북도 안동시 풍산읍 괴정리 569,경상북도 안동시 풍산읍 괴정2길 21-14,36.59761694,128.5345229
합포중학교,중학교,경상남도 창원시 마산합포구 산호동 117-7,경상남도 창원시 마산합포구 산호남10길 18,35.21578987,128.5853702
서울관악초등학교,초등학교,서울특별시 관악구 봉천동 920,서울특별시 관악구 청룡4길 49,37.48102565,126.9425545
장산초등학교,초등학교,전라남도 신안군 장산면 대리 93-1,전라남도 신안군 장산면 장산로 277,34.63816011,126.1442085
인천숭의초등학교,초등학교,인천광역시 미추홀구 숭의동 31-7,인천광역시 미추홀구 장천로 99,37.46371972,126.6557067
진보중학교,중학교,경상북도 청송군 진보면 진안리 562-2,경상북도 청송군 진보면 진성로 25,36.53283897,129.0414663
인제고등학교,고등학교,강원특별자치도 인제군 인제읍 합강리 347,강원특별자치도 인제군 인제읍 인제로249번길 22,38.07422766,128.1773375
전주솔내고등학교,고등학교,전북특별자치도 전주시 덕진구 송천동1가 111-3,전북특별자치도 전주시 덕진구 송천중앙로 170,35.86301323,127.1225064
성남동초등학교,초등학교,경기도 성남시 중원구 금광동 3365,경기도 성남시 중원구 자혜로32번길 10,37.4492524,127.1621785
서초중학교,중학교,서울특별시 서초구 서초동 1741-13,서울특별시 서초구 반포대로13길 48,37.48553868,127.0085193
이화초등학교,초등학교,울산광역시 북구 중산동 710,울산광역시 북구 화정4길 40,35.66117868,129.344286
광주농성초등학교,초등학교,광주광역시 남구 월산동 914-1,광주광역시 남구 금화로481번길 7,35.14822852,126.8906951
근흥중학교,중학교,충청남도 태안군 근흥면 용신리 409-6,충청남도 태안군 근흥면 근흥로 690,36.71634464,126.2289023
영동고등학교,고등학교,경상북도 영천시 야사동 393,경상북도 영천시 안야사길 13,35.97778874,128.9465541
운산초등학교,초등학교,강원특별자치도 강릉시 운산동,강원특별자치도 강릉시 운산길 79-15,37.7297797,128.9375871
경북외국어고등학교,고등학교,경상북도 구미시 남통동 110,경상북도 구미시 금오산로 198-10,36.12450267,128.3220899
천천고등학교,고등학교,경기도 수원시 장안구 천천동 513,경기도 수원시 장안구 정자로42번길 31,37.29945329,126.982976
늘푸른초등학교,초등학교,경기도 성남시 분당구 정자동 178-5,경기도 성남시 분당구 정자일로 87,37.35833354,127.1056708
백동초등학교,초등학교,경상남도 양산시 소주동 669,경상남도 양산시 백동길 19-24,35.40611606,129.1528503
서울청계초등학교,초등학교,서울특별시 노원구 중계동 513-1,서울특별시 노원구 공릉로 431,37.64503406,127.0661389
신원중학교,중학교,경기도 고양시 덕양구 신원동 605,경기도 고양시 덕양구 신원2로 6,37.66750838,126.8877768
초성초등학교,초등학교,경기도 연천군 청산면 초성리 223-1,경기도 연천군 청산면 학담로 104,37.99816515,127.0736834
화산중학교,중학교,경상북도 영천시 화산면 유성리 1360-1,경상북도 영천시 화산면 연유길 14,36.01997426,128.8488845
유등초등학교,초등학교,전북특별자치도 순창군 유등면 외이리 186,전북특별자치도 순창군 유등면 유등로 413,35.36210949,127.1884292
미르초등학교,초등학교,세종특별자치시 한솔동 981,세종특별자치시 나리로 26-16,36.47238238,127.2538532
마암초등학교,초등학교,전북특별자치도 임실군 운암면 마암리 700,전북특별자치도 임실군 운암면 마암2길 84,35.60310732,127.1045917
동백중학교,중학교,경기도 용인시 기흥구 동백동 578,경기도 용인시 기흥구 동백중앙로 385,37.28558222,127.1589105
이의중학교,중학교,경기도 수원시 영통구 하동 981,경기도 수원시 영통구 법조로 129,37.2913276,127.0707668
백화초등학교,초등학교,충청남도 태안군 태안읍 동문리 45,충청남도 태안군 태안읍 다락미1길 85,36.75287062,126.3083724
노화중앙초등학교,초등학교,전라남도 완도군 노화읍 이포리 674,전라남도 완도군 노화읍 이목25번길 49-13,34.17885268,126.5715833
문경여자중학교,중학교,경상북도 문경시 모전동 513,경상북도 문경시 돈달로 15,36.5956739,128.1898857
성안고등학교,고등학교,경기도 안산시 상록구 사동 1582,경기도 안산시 상록구 용신로 170,37.30271205,126.8425361
안덕중학교,중학교,제주특별자치도 서귀포시 안덕면 화순리 296,제주특별자치도 서귀포시 안덕면 화순로 74,33.24892777,126.3374515
대천중학교,중학교,충청남도 보령시 명천동 430-4,충청남도 보령시 보령남로 23,36.3423924,126.6005643
임곡중학교,중학교,광주광역시 광산구 임곡동 783-1,광주광역시 광산구 고봉로 812,35.22062838,126.7419508
상서중학교,중학교,대구광역시 달서구 성당동 670-31,대구광역시 달서구 야외음악당로 107,35.84643612,128.5498704
인주중학교,중학교,충청남도 아산시 인주면 밀두리 36-15,충청남도 아산시 인주면 영인산로 85,36.86728192,126.8933977
대구사월초등학교,초등학교,대구광역시 수성구 신매동 57-1,대구광역시 수성구 달구벌대로656길 46,35.83405178,128.7150404
인천옥련초등학교,초등학교,인천광역시 연수구 옥련동 232,인천광역시 연수구 한진로 30,37.42551392,126.6488193
도봉초등학교,초등학교,경상북도 구미시 도량동 221,경상북도 구미시 도봉로 47,36.14222705,128.3169424
충주중산고등학교,고등학교,충청북도 충주시 호암동 산22-3,충청북도 충주시 방아길 20,36.94672186,127.937922
전남보건고등학교,고등학교,전라남도 함평군 월야면 월야리 627-5,전라남도 함평군 월야면 문화로 685-18,35.18856303,126.624301
안좌중학교,중학교,전라남도 신안군 안좌면 창마리 290,전라남도 신안군 안좌면 중부로 743,34.74424551,126.1275449
청주동중학교,중학교,충청북도 청주시 상당구 금천동 47-5,충청북도 청주시 상당구 수영로 258,36.62848198,127.506259
조원중학교,중학교,경기도 수원시 장안구 조원동 40,경기도 수원시 장안구 수일로233번길 35,37.30761201,127.0167427
평내초등학교,초등학교,경기도 남양주시 평내동 203-6,경기도 남양주시 경춘로 1292-11,37.64908523,127.2377347
삼성초등학교,초등학교,충청북도 음성군 삼성면 덕정리 508-1,충청북도 음성군 삼성면 덕정로 41,37.02006765,127.4975038
대전전민중학교,중학교,대전광역시 유성구 전민동 466-1,대전광역시 유성구 엑스포로466번길 97,36.4015563,127.4054691
김천중학교,중학교,경상북도 김천시 부곡동 777-1,경상북도 김천시 송설로 90,36.12343109,128.0939955
생영초등학교,초등학교,전라남도 완도군 생일면 유서리 270,전라남도 완도군 생일면 생일로579번길 3,34.33302248,126.9963682
충주삼원초등학교,초등학교,충청북도 충주시 봉방동 11-1,충청북도 충주시 삼원로 128,36.97600427,127.9243149
청원초등학교,초등학교,경기도 화성시 마도면 청원리 228-4,경기도 화성시 마도면 해운로 794,37.18820787,126.7608922
서울신흥초등학교,초등학교,서울특별시 금천구 시흥동 704-56,서울특별시 금천구 독산로36나길 21,37.45934816,126.9093508
구엄초등학교,초등학교,제주특별자치도 제주시 애월읍 구엄리 1065,제주특별자치도 제주시 애월읍 일주서로 6768,33.47355827,126.3752767
교동초등학교,초등학교,강원특별자치도 원주시 명륜동 235,강원특별자치도 원주시 명륜로 9,37.3389582,127.9470691
명덕여자중학교,중학교,울산광역시 동구 일산동 450,울산광역시 동구 학문로 40,35.50434136,129.4242201
협신초등학교,초등학교,강원특별자치도 홍천군 남면 시동리 1241,강원특별자치도 홍천군 남면 시동안로 89,37.59567064,127.819478
수남초등학교,초등학교,경상남도 김해시 율하동 1395,경상남도 김해시 율하2로 183,35.17062001,128.8189478
서울양명초등학교,초등학교,서울특별시 양천구 신정동 310-6,서울특별시 양천구 중앙로 204,37.51637495,126.8566349
구례고등학교,고등학교,전라남도 구례군 구례읍 봉남리 54,전라남도 구례군 구례읍 봉성로 15-18,35.20383015,127.4627329
반송중학교,중학교,경기도 화성시 반송동 198,경기도 화성시 탄요1길 13,37.19024001,127.0710854
이평초등학교,초등학교,전북특별자치도 정읍시 이평면 두지리 248-2,전북특별자치도 정읍시 이평면 말목장터길 5-29,35.66231646,126.8385969
시흥초등학교,초등학교,경기도 시흥시 정왕동 1871-4,경기도 시흥시 정왕대로143번길 15,37.35193371,126.7320864
대덕중학교,중학교,전라남도 장흥군 대덕읍 연정리 197,전라남도 장흥군 대덕읍 대대로 1005,34.49990283,126.8957904
유성여자고등학교,고등학교,대전광역시 유성구 죽동 305,대전광역시 유성구 은구비로138번길 70,36.38458956,127.3289254
솔강중학교,중학교,충청북도 청주시 흥덕구 오송읍 봉산리 1518 산27-1,충청북도 청주시 흥덕구 오송읍 오송생명8로 85,36.61783455,127.3095735
백의초등학교,초등학교,경기도 연천군 청산면 백의리 824-24,경기도 연천군 청산면 청창로 726,38.02329181,127.1365157
한성여자중학교,중학교,서울특별시 성북구 삼선동2가 395-4,서울특별시 성북구 삼선교로16길 118,37.5830649,127.0117427
계양고등학교,고등학교,인천광역시 계양구 용종동 227-3,인천광역시 계양구 계양문화로 177,37.54193113,126.7438981
용정초등학교,초등학교,강원특별자치도 철원군 동송읍 상노리 182,강원특별자치도 철원군 동송읍 상노2길 11,38.16317002,127.241457
김천동부초등학교,초등학교,경상북도 김천시 지좌동 730-1,경상북도 김천시 황산로 83-15,36.11859869,128.1380241
시랑초등학교,초등학교,경기도 안산시 상록구 부곡동 719-3,경기도 안산시 상록구 충장로 670,37.33636627,126.8561381
인천석정초등학교,초등학교,인천광역시 남동구 간석동 614-5,인천광역시 남동구 석정로539번길 32,37.46708126,126.6957525
장기초등학교,초등학교,경기도 김포시 장기동 1639,경기도 김포시 김포한강2로 173,37.64245358,126.6644771
서울당산초등학교,초등학교,서울특별시 영등포구 양평동4가 323,서울특별시 영등포구 선유로55길 32,37.54011912,126.8962411
산척초등학교,초등학교,충청북도 충주시 산척면 송강리 1282-1,충청북도 충주시 산척면 천등박달로 134,37.07977557,127.9579296
군산진포중학교,중학교,전북특별자치도 군산시 수송동 61-10,전북특별자치도 군산시 진포3길 66,35.97243982,126.7220784
오산초등학교,초등학교,전라남도 진도군 고군면 오산리 1048-3,전라남도 진도군 고군면 진도대로 288,34.49194619,126.3417858
구미왕산초등학교,초등학교,경상북도 구미시 임은동 307,경상북도 구미시 왕산로 32,36.08612317,128.3654769
서울대모초등학교,초등학교,서울특별시 강남구 일원동 736,서울특별시 강남구 광평로20길 27,37.48059845,127.0859938
서울오류초등학교,초등학교,서울특별시 구로구 오류동 20-1,서울특별시 구로구 경인로19길 39,37.49752741,126.8420300297
충주중학교,중학교,충청북도 충주시 호암동 192-1,충청북도 충주시 거룡2길 14,36.95812516,127.9386753
전남과학고등학교,고등학교,전라남도 나주시 금천면 오강리 185-6,전라남도 나주시 금천면 오강길 33,35.03306834,126.7590628
구정초등학교,초등학교,경상북도 포항시 남구 오천읍 구정리 442-3,경상북도 포항시 남구 오천읍 구정길 11,35.98089045,129.4085773
도포초등학교,초등학교,전라남도 영암군 도포면 덕화리 100-2,전라남도 영암군 도포면 줄다리로 117,34.83655067,126.635338
대전과학고등학교,고등학교,대전광역시 유성구 구성동 19-2,대전광역시 유성구 과학로 46,36.37419466,127.3714358
명덕여자중학교,중학교,서울특별시 강서구 내발산동 169-1,서울특별시 강서구 강서로47길 34-10,37.55394399,126.8342914
충주교현초등학교,초등학교,충청북도 충주시 교현동 339-1,충청북도 충주시 교동2길 15,36.9741152,127.9374972
한얼초등학교,초등학교,경기도 군포시 산본동 212-5,경기도 군포시 산본천로 136,37.36623705,126.935606
국원초등학교,초등학교,충청북도 충주시 연수동 1661,충청북도 충주시 국원초1길 47,36.98134436,127.9444742
문현고등학교,고등학교,서울특별시 송파구 장지동 838,서울특별시 송파구 충민로 115,37.48131355,127.1287623
사당중학교,중학교,서울특별시 동작구 사당동 209-16,서울특별시 동작구 사당로9가길 58,37.48776119,126.9685407
서진여자고등학교,고등학교,광주광역시 남구 주월동 산219-8,광주광역시 남구 서문대로742번길 20,35.12555976,126.8999456
미원초등학교,초등학교,경기도 가평군 설악면 신천리 439-2,경기도 가평군 설악면 신천중앙로120번길 11,37.67952506,127.4907358
계룡중학교,중학교,충청남도 계룡시 금암동 75-1,충청남도 계룡시 서금암5길 17,36.26755868,127.2551156
옥천초등학교,초등학교,전라남도 해남군 옥천면 영춘리 573-1,전라남도 해남군 옥천면 해강로 19,34.56810446,126.6491129
동진초등학교,초등학교,경상남도 진주시 하대동 119-1,경상남도 진주시 도동로184번길 13,35.18779911,128.1245508
운수초등학교,초등학교,경상북도 고령군 운수면 봉평리 797-1,경상북도 고령군 운수면 운용로 118,35.77036659,128.2911211
순창중앙초등학교,초등학교,전북특별자치도 순창군 순창읍 남계리 268,전북특별자치도 순창군 순창읍 장류로 385,35.37769818,127.1445028
웅남초등학교,초등학교,경상남도 창원시 성산구 상남동 44-3,경상남도 창원시 성산구 단정로 75,35.21766862,128.6876607
서울청담초등학교,초등학교,서울특별시 강남구 청담동 142,서울특별시 강남구 압구정로71길 9,37.52828187,127.045153
고서초등학교,초등학교,전라남도 담양군 고서면 동운리 591-2,전라남도 담양군 고서면 원등1길 7,35.22463672,126.9736336
대연초등학교,초등학교,부산광역시 남구 대연동 289-15,부산광역시 남구 진남로18번길 11,35.1372365,129.0922864
인천가석초등학교,초등학교,인천광역시 서구 가정동 430-37,인천광역시 서구 서달로 174,37.51475728,126.6796755
태성중학교,중학교,경기도 용인시 처인구 남동 28,경기도 용인시 처인구 백옥대로 1059-2,37.22892007,127.2088324
영인중학교,중학교,충청남도 아산시 영인면 아산리 35-6,충청남도 아산시 영인면 아산온천로3번길 17,36.85439358,126.9614626
진위초등학교,초등학교,경기도 평택시 진위면 봉남리 233,경기도 평택시 진위면 봉남길 49,37.10066411,127.0899589
약사초등학교,초등학교,울산광역시 중구 약사동 707-2,울산광역시 중구 화합로 478,35.56739903,129.3347949
인천송천고등학교,고등학교,인천광역시 남동구 논현동 738-4,인천광역시 남동구 앵고개로815번길 59,37.3958707,126.7216321
연수여자고등학교,고등학교,인천광역시 연수구 동춘동 921-1,인천광역시 연수구 먼우금로141번길 9,37.41103535,126.6723295
화순북면중학교,중학교,전라남도 화순군 백아면 이천리 26,전라남도 화순군 백아면 백아로 1198,35.16615557,127.1340919
장흥초등학교,초등학교,전라남도 장흥군 장흥읍 건산리 662,전라남도 장흥군 장흥읍 의향길 23,34.68371634,126.9073842
효돈초등학교,초등학교,제주특별자치도 서귀포시 신효동 123-3,제주특별자치도 서귀포시 효돈로 161,33.26467175,126.6153891
강북중학교,중학교,대구광역시 북구 구암동 787-1,대구광역시 북구 구암서로 27,35.93870319,128.5648604
집현중학교,중학교,세종특별자치시 금남면 집현리 883-50,세종특별자치시 집현서로 42,36.49102686,127.3218875
금일초등학교,초등학교,전라남도 완도군 금일읍 신구리 680,전라남도 완도군 금일읍 구동2길 38,34.3554143,127.033303
제천상업고등학교,고등학교,충청북도 제천시 신백동 182-3,충청북도 제천시 의병대로 243,37.13364913,128.2284182
관촌초등학교,초등학교,전북특별자치도 임실군 관촌면 관촌리 502,전북특별자치도 임실군 관촌면 사선6길 11,35.67655579,127.270434
충주북여자중학교,중학교,충청북도 충주시 교현동 490,충청북도 충주시 야현1길 21,36.98004113,127.9390387
서일문화예술고등학교,고등학교,서울특별시 종로구 창신동 13-80,서울특별시 종로구 지봉로17길 49,37.57937936,127.0127598
탑동초등학교,초등학교,경기도 동두천시 탑동동 395-1,경기도 동두천시 탑신로 61,37.89155643,127.1039343
보평초등학교,초등학교,경기도 성남시 분당구 삼평동 743,경기도 성남시 분당구 동판교로 154,37.39603837,127.1177564
정라초등학교,초등학교,강원특별자치도 삼척시 정상동 344,강원특별자치도 삼척시 정상로3길 5,37.44429121,129.1768806
서울면북초등학교,초등학교,서울특별시 중랑구 망우동 119,서울특별시 중랑구 용마공원로5길 32,37.59441816,127.1035478
월등초등학교,초등학교,전라남도 순천시 월등면 대평리 458,전라남도 순천시 월등면 월평2길 21,35.09273259,127.3778723
동백중학교,중학교,부산광역시 해운대구 중동 750-11,부산광역시 해운대구 좌동순환로468번가길 97,35.16584538,129.1743447
쌍류초등학교,초등학교,세종특별자치시 연서면 쌍류리 365-3,세종특별자치시 연서면 벌말길 73,36.5993997,127.209739
수원여자고등학교,고등학교,경기도 수원시 팔달구 고등동 19-1,경기도 수원시 팔달구 고등로59번길 72,37.27682819,127.004355
봉황초등학교,초등학교,경상북도 경산시 진량읍 봉회리 81-14,경상북도 경산시 진량읍 봉황길 50,35.88300255,128.8237438
한민고등학교,고등학교,경기도 파주시 광탄면 용미리 704-10,경기도 파주시 광탄면 혜음로 765,37.75805679,126.8580362
상서고등학교,고등학교,대구광역시 달서구 성당동 670-31,대구광역시 달서구 야외음악당로 107,35.84643612,128.5498704
군포초등학교,초등학교,경기도 군포시 당동 795-4,경기도 군포시 군포로 463,37.34823766,126.9419284
방산초등학교,초등학교,경상남도 고성군 거류면 용산리 195-158,경상남도 고성군 거류면 방산로 42,34.97162391,128.364242
양지중학교,중학교,세종특별자치시 도담동 896,세종특별자치시 갈매로 512,36.50873217,127.2684692
수성초등학교,초등학교,경기도 수원시 장안구 조원동 843,경기도 수원시 장안구 금당로 19,37.30561994,127.0144759
중리초등학교,초등학교,경상남도 창원시 마산회원구 내서읍 호계리 305,경상남도 창원시 마산회원구 내서읍 호계안길 22,35.25598878,128.5200668
